ID;Name;Street;City;State;Postal Code;Latitude;Longitude;Radius;Group Name
1909154;Farmacia Drogueria San Jorge LTDA;142-14100 Carrera 2;Cali;Valle del Cauca;;3.4547380000;-76.5306990000;0.080000000;INH Brenntag Cali
10578605;PRODUCTOS RINCON;2298 Carrera 4;Cali;Valle del Cauca;760044;3.4567440000;-76.5233030000;0.150000000;Destinatario
1970854;1 H Soluciones Ambientales;8A2-8A100 Calle 39;Cali;Valle del Cauca;;3.4524270000;-76.5074270000;0.048000000;INH Brenntag Cali
70871743;76002;;Grise Fiord;NU;X0A 0J0;78.2962950000;-78.2962950000;0.031000000;
2381476;A G MEGAFLEX LTDA;151-1587 Calle 30;Cali;Valle del Cauca;760010;3.4448630000;-76.5152190000;0.031000000;INH Brenntag Cali
1995331;A.C.J Industriales y Cia.;I-25;Santander de Quilichao;Cauca;;3.0265400000;-76.4988720000;0.080000000;INH Brenntag Cali
1987945;AAApapermet;231-2399 Carrera 17F;Cali;Valle del Cauca;;3.4396520000;-76.5192940000;0.080000000;INH Brenntag Cali
1174758;Abocol C/gena;Via Principal, Cartagena, Bolivar;;;;10.3104580000;-75.5008410000;0.040000000;Remitentes
13137086;Accidente ZNM766 STS341;14108 Carrera 7 25;San Juán Nepomuceno;Bolívar;132010;9.9525400000;-75.0872100000;0.031000000;
3787963;Aceites del Llano Vvcio;Villavicencio-Restrepo;La Palmera;Meta;500007;4.1931670000;-73.5977990000;0.031000000;
7383615;Aceites Finos SAS;1 Este184-1 Este402 Calle 7;Madrid;Cundinamarca;250030;4.7288430000;-74.2570560000;0.069000000;
759898;ACPM  Curva Perico 2;Av 40, Ibague, Tolima;;;;4.4063900000;-75.2976300000;0.040000000;Versionadero
759895;ACPM Analuisa;Av 25n-5, Buga, Valle Cauca;;;;4.4050400000;-75.2941500000;0.040000000;Versionadero
689636;ACPM Curralito;Av 40, Ibague, Tolima;;;;4.4058500000;-75.2951400000;0.402000000;Versionadero
759897;ACPM Curva Perico;Av 40, Ibague, Tolima;;;;4.4057800000;-75.2967800000;0.040000000;Versionadero
759896;ACPM K2;Av 25n-5, Buga, Valle Cauca;;;;4.4059200000;-75.2951600000;0.040000000;Versionadero
759893;ACPM La Trucha;Av 40, Ibague, Tolima;;;;4.4090300000;-75.2741700000;0.040000000;Versionadero
759894;ACPM Morocusco;Av 40, Ibague, Tolima;;;;4.4035200000;-75.2819500000;0.040000000;Versionadero
759899;ACPM Perico 3;Av 40, Ibague, Tolima;;;;4.4077300000;-75.3022400000;0.040000000;Versionadero
1047532;ACPM Puente nuevo pasando Cisneros;Av 40, Cali, Valle Cauca;;;;3.7763900000;-76.7481900000;0.032000000;Versionadero
10917079;Acuapaez;Via Guachene;Puerto Tejada;Cauca;191507;3.2084050000;-76.4238820000;0.040000000;INH Brenntag Cali
68470735;Acuapaez s a s;Via Guachene;Puerto Tejada;Cauca;191088;3.2082160000;-76.4243270000;0.031000000;
864116;Acueducto de Piendamo;Av 25, Popayan, Cauca;;;;2.6331870000;-76.5241890000;0.040000000;Destinatario
637927;Acueducto la Flora B/manga;Av 66, Bucaramanga, Santander;;;;7.1349500000;-73.1038700000;0.402000000;Destinatario
6757765;acueducto Sachacoco;Unnamed Road;;Cauca;193507;2.3705150000;-76.6510120000;0.010000000;
7883622;aeropuerto Alfonso Bonilla Aragon;Unnamed Road;La Esmeralda;Valle del Cauca;763537;3.5419420000;-76.3878100000;0.031000000;
1638923;Agenquimicos Ltda.;52-5112 Calle 18;Cali;Valle del Cauca;760044;3.4532830000;-76.5268180000;0.040000000;INH Brenntag Cali
2025773;Agraf Industrial S.A;29B1-29B99 Calle 11A;Yumbo;Valle del Cauca;;3.5170480000;-76.5108620000;0.080000000;INH Brenntag Cali
6155974;Agroal;141 Calle 9a;Cali;Valle del Cauca;760044;3.4432290000;-76.5329490000;0.050000000;INH Brenntag Cali
8803052;AGROAVICOLA SAN MARINO S.A.;Cali - Palmira;Galicia;Valle del Cauca;763537;3.5104900000;-76.4038290000;0.031000000;INH Brenntag Cali
2001690;AgroInca Palmira;2 Calle 48;Palmira;Valle del Cauca;;3.5426730000;-76.2758060000;0.080000000;INH Brenntag Cali
1642844;Agroindustrias del Cauca;Av 25a, Jamundi, Valle Cauca, Colombia;;;;3.1777530000;-76.3940010000;0.040000000;INH Brenntag Cali
7748807;Agroindustrias del Cauca;Unnamed Road;;Cauca;191087;3.1775330000;-76.3952830000;0.031000000;
2471365;Agroindustrias del Cauca S.A;Via Guachene;;Cauca;191087;3.1842870000;-76.3737860000;0.040000000;INH Brenntag Cali
2616284;AGROPANELA SANTA ELENA;Unnamed Road;;Valle del Cauca;763568;3.3201270000;-76.2110300000;0.031000000;
25324799;Agropanela Santa Helena;Via Candelaria / Pradera;;Valle del Cauca;763557;3.4202150000;-76.2540090000;0.031000000;
69137291;Agroquimicos del VAlle;17f 1-49 30-42 30-24 3057 302-30100 Calle 33a Calle 33a Calle 33a Calle 33a Calle 33a;Cali;Valle del Cauca;760010;3.4392430000;-76.5135710000;0.019000000;
3302388;Agrosan;Km 44 de la vía Primavera - Ciudad Bolivar, , Antioquia;;;;6.0473540000;-75.6903150000;0.040000000;Remitentes
8078343;AGUIRRE PINEDA EDWARD FERNANDO;13-1 Carrera 19;Armenia;Quindío;630003;4.5375510000;-75.6728390000;0.031000000;INH Brenntag Cali
1905640;Alambre y cables tecnicos;Unnamed Road;Puerto Tejada;Cauca;;3.2092170000;-76.4216660000;0.080000000;INH Brenntag Cali
1708097;Alcopaisas;Cl60s 43a-10, Sabaneta, Antioquia;;;;6.1568590000;-75.6085050000;0.040000000;Destinatario
24002961;Ale Aluminios;Vía Estadio Palmaseca;Las Palmeras;Valle del Cauca;763537;3.5113200000;-76.4128140000;0.019000000;
2020532;Alexander Chacon;342-34100 Carrera 5A;Cali;Valle del Cauca;;3.4585720000;-76.5131350000;0.080000000;
1257219;Algranel B/ventura;72-7100 Carrera 18A;Buenaventura;Valle del Cauca;;3.8872160000;-77.0632850000;0.145000000;Remitentes
1777858;Algranel C/gena;24100 Calle 28;Cartagena de Indias;Bolívar;;10.4060760000;-75.5269790000;0.048000000;Remitentes
2025678;Alimentos Carnicos S.A.S;Unnamed Road;Guachené;Cauca;;3.2058850000;-76.4215390000;0.080000000;
70395831;Alimentos del Valle;No 31 B - 69 37-22 #37B-21 15-54 3787 372-37104 Carrera 8bis Carrera 8bis Carrera 8bis Carrera 8bis;Pereira;Risaralda;660002;4.8151650000;-75.7101470000;0.019000000;
2364559;ALIVAL PEREIRA;371-37103 Carrera 8;Pereira;Risaralda;660002;4.8156580000;-75.7100710000;0.048000000;
1907374;Alival S.A;Via Guachene;Puerto Tejada;Cauca;191507;3.2028740000;-76.4193630000;0.048000000;INH Brenntag Cali
15697882;ALKEN;La Tebaida-Armenia;Armenia;Quindío;630007;4.5097420000;-75.7062850000;0.031000000;
15697883;ALKEN;La Tebaida-Armenia;Armenia;Quindío;630007;4.5097420000;-75.7062850000;0.031000000;
17043645;ALKEN ARMENIA;51-26 50166 50171-50157 Carrera 18 40 40;Armenia;Quindío;630001;4.5187400000;-75.6900570000;0.019000000;
24214519;ALKEN SAS;Calarca-El Caimo;Armenia;Quindío;630008;4.4851420000;-75.7051940000;0.019000000;
16806457;ALKEN SAS;La Tebaida-Armenia;Armenia;Quindío;630007;4.5097500000;-75.7062300000;0.010000000;
22181505;ALKEN SAS;La Tebaida-Armenia;Armenia;Quindío;630007;4.5097600000;-75.7062800000;0.019000000;
30807589;All Trucks;# 36-101 15-79 73 Norte2 73 Norte61-73 Norte1 Avenida 2c Norte Avenida 2c Norte Carrera 37 Calle 15;Cali;Valle del Cauca;760502;3.4948400000;-76.5067940000;0.060000000;
10664448;Alm Tornipartes La 40 Tulua;28a - 71 3906 28a50 28b65-28b3 Carrera 40 Carrera 40 Calle 28c Carrera 40;Tuluá;Valle del Cauca;763021;4.0806720000;-76.1870650000;0.031000000;
15525319;ALMACENADORA COLOMBIANA;11143 112-11170 Calle 7 Calle 7;Buenaventura;Valle del Cauca;764501;3.8862150000;-77.0627710000;0.031000000;
596065;Almacol B/ventura;Cl7a 18b-61, Buenaventura, Valle Cauca;buenaventura;VCA;0;3.8865100000;-77.0630700000;0.145000000;Remitentes
2255855;Almacol planta Btura;111-11169 Calle 7;Buenaventura;Valle del Cauca;764501;3.8867730000;-77.0627710000;0.080000000;Remitentes
6218627;Alpina;Unnamed Road;;Cauca;191088;3.2021880000;-76.4185950000;0.010000000;
1769855;Alpina Caloto;Unnamed Road;;Cauca;191088;3.2010550000;-76.4180990000;0.048000000;INH Brenntag Cali
1621362;Alpina Manizales;Via Principal-42, Chinchina, Caldas, Colombia;;;;4.9918020000;-75.6056990000;0.150000000;INH Brenntag Cali
9789586;Alpina planta Entrerrios;Entrerrios-Don Matías;La Playa;Antioquia;051437;6.5634200000;-75.5110020000;0.019000000;
1905774;Alpina Popayan;5b8-5b74 Calle 48 Norte;Popayán;Cauca;190001;2.4698150000;-76.5770570000;0.080000000;INH Brenntag Cali
7484194;Alpopular Bodegas;101-10113 Carrera 21;Yumbo;Valle del Cauca;760502;3.5506210000;-76.5022620000;0.031000000;INH Brenntag Cali
1621378;Alqueria;Calle 42;Palmira;Valle del Cauca;763531;3.5370930000;-76.3204470000;0.050000000;INH Brenntag Cali
1985113;Alquin Ltda;1-29 Calle 36;Cali;Valle del Cauca;;3.4233460000;-76.5042180000;0.080000000;
3997927;Alto Calima Cierre Vial;Loboguerrero - Mediacanoa;;Valle del Cauca;760547;3.8455590000;-76.5785900000;0.031000000;
17935957;Alto de Minas;Santa Barbara-Caldas;;Antioquia;055447;5.9850600000;-75.6082100000;0.080000000;
1238633;AltoLa Linea;Av 40, Salento, Quindio;;;;4.4734600000;-75.5571900000;0.040000000;Reten Policia
1907661;Aluminio Nacional;11A2-11A100 Carrera 32;Yumbo;Valle del Cauca;;3.5123510000;-76.5125380000;0.080000000;INH Brenntag Cali
6952109;Aluminios de Colombia;792-79254 Pereira-Manizales;Dosquebradas;Risaralda;661001;4.8548800000;-75.6541580000;0.031000000;
72159582;Alumnios de Colombia;# 16-147 # 16-70 26 Calle 79 A Calle 79 A Calle 79 A Calle 79 A;Dosquebradas;Risaralda;661001;4.8548230000;-75.6538680000;0.019000000;
11266763;Ambiocom SAS;Rozo-Palmira;;Valle del Cauca;763537;3.5217410000;-76.4314010000;0.100000000;Clientes
37160928;Amcor Flexibles Cali;32234 32234 32234 Tulua - Cali 23 Calle 15 Calle 15;Yumbo;Valle del Cauca;760502;3.5099970000;-76.5036220000;0.069000000;
25278020;American Solvents S A S;Santa Barbara-Caldas;;Antioquia;055447;6.0346600000;-75.6252800000;0.019000000;
23175722;American Solvents S A S;Santa Barbara-Caldas;;Antioquia;055447;6.0340500000;-75.6251600000;0.019000000;
19882159;American Solvents S A S;Santa Barbara-Caldas;;Antioquia;055447;6.0337540000;-75.6251450000;0.019000000;
9373604;Americana de Curtidos Ltda;Vía El Manzanillo;Santa Rosa de Cabal;Risaralda;661027;4.8968240000;-75.6294440000;0.031000000;
734531;Andercol;Via Principal, Girardota, Antioquia;;;;6.4005100000;-75.4180700000;0.040000000;Clientes
50542846;Anillo V Coronado;Rozo-Palmira;;Valle del Cauca;763537;3.5803170000;-76.3277930000;0.150000000;
2021828;Antex s a;Carrera 51A;;;;6.2149690000;-75.5786450000;0.040000000;Destinatario
1936647;Apex Tool;1 Calle 81A;Palmira;Valle del Cauca;;3.4580720000;-76.4703490000;0.080000000;INH Brenntag Cali
8080628;ARANGO JOSE JESUS;212-2174 Carrera 11d;Cali;Valle del Cauca;760044;3.4468460000;-76.5219060000;0.031000000;INH Brenntag Cali
13136927;Argos Cl 80 Bogota;Unnamed Road;;Cundinamarca;250017;4.7302000000;-74.1347200000;0.031000000;
7688647;Argos Fusagasuga;24b116-24b230 Calle 8a;Fusagasugá;Cundinamarca;252219;4.3450030000;-74.3808160000;0.069000000;
10587114;Argos Medellín;372 Carrera 42B Carrera 43a;Bello;Antioquia;051051;6.3227500000;-75.5480320000;0.080000000;
13367295;Argos planta Cajica;Cajicá - Zipaquirá;La Concepcion;Cundinamarca;250247;4.9726300000;-74.0040900000;0.019000000;
11402939;Argos planta Madrid;Variante Madrid;Madrid;Cundinamarca;250038;4.7423170000;-74.2512530000;0.031000000;
14079489;Argos planta Rio Claro;Unnamed Road;;Antioquia;054827;5.8553610000;-74.8503670000;0.031000000;
12210021;Argos planta Tunja;Villapinzon-Tunja;;Boyacá;150007;5.5084900000;-73.3585100000;0.031000000;
7880632;Argos Santa Marta;Avenida Troncal Del Caribe;;Magdalena;470005;11.1964910000;-74.2047340000;0.080000000;Destinatario
7749422;Arios Colombia;4274-42170 Calle 8;Cali;Valle del Cauca;760042;3.4186790000;-76.5409540000;0.019000000;INH Brenntag Cali
8080785;ARIZA OVALLE ADELA ROCIO;60-51 Carrera 48;Sevilla;Valle del Cauca;762530;4.2711470000;-75.9318850000;0.031000000;INH Brenntag Cali
8496387;Aromaticos de Occidente;4b1-4b107 Calle 40;Cali;Valle del Cauca;760003;3.4604960000;-76.5091880000;0.010000000;INH Brenntag Cali
2458376;AROMATIZA SAS;101-1061 Calle 57;Cali;Valle del Cauca;760011;3.4501550000;-76.4949910000;0.031000000;INH Brenntag Cali
8984295;AS Quimicos;231 Calle 48;Manizales;Caldas;170004;5.0643250000;-75.4999310000;0.010000000;
16387179;Athena Foods Red Carnica;Unnamed Road;;Córdoba;232527;8.8695580000;-75.6584700000;0.180000000;Remitentes
47784930;Atin Kimya;Km 8 Vereda La Chosca Autopista Norte;Copacabana;Antioquia;051040;6.3809000000;-75.4858700000;0.019000000;
1634802;Atman;Kr21a 9-84, Yumbo, Valle Cauca, Colombia;;;;3.5516340000;-76.5058040000;0.040000000;INH Brenntag Cali
2362404;AUDIO SPAIN;3b Norte39-3b Norte163 Calle 54 Norte;Cali;Valle del Cauca;760050;3.4857760000;-76.5154570000;0.048000000;
1383903;Aup Med a Bta - Troncal Mafgdalena;2 I-60;Puerto Boyacá;Boyacá;;5.8424840000;-74.5757160000;0.048000000;
21336523;AUROBELLEZA YUMBO;10243 Carrera 37 Carrera 36B;Yumbo;Valle del Cauca;760502;3.4970700000;-76.5173300000;0.031000000;
6955829;Aurora Moreno;134-1106 Carrera 16;Guadalajara de Buga;Valle del Cauca;763042;3.8961790000;-76.3047810000;0.010000000;
21662503;Autocentro Capri;# 33-70 33118 33111 33117-331 Calle 10 Calle 10 Calle 10 Calle 10;Yumbo;Valle del Cauca;760502;3.5083290000;-76.5203960000;0.019000000;
11010399;Autolavado El GALAN;1-37 Transversal 60;Bogotá;Bogotá;111621;4.6188110000;-74.1240980000;0.060000000;Lavaderos
10208166;Autolavado Pesados;10644 1735 1052-10598 Calle 17 Carrera 106 Calle 17;Bogotá;Bogotá;110921;4.6770740000;-74.1490360000;0.031000000;Lavaderos
13287591;AutoLavado Pueblo Viejo;500 438 Sopo-Briceno Diagonal 4 50C;;Cundinamarca;251007;4.9203640000;-73.9482220000;0.031000000;Lavaderos
13139720;Automundial Bogota;47-85 4736 Calle 13 Calle 13 Calle 13;Bogotá;Bogotá;111611;4.6258930000;-74.1057240000;0.031000000;
698825;Automundial s a;Kr20c 14-83, Yumbo, Valle Cauca;;;;3.5485400000;-76.4908200000;0.040000000;Clientes
1383936;Autp Medellin a Bogota;432-4328 Calle 22D;Bello;Antioquia;;6.3099370000;-75.5539980000;0.048000000;
73122709;Avicola pollo listo;Vía Sin Nombre;;Valle del Cauca;763579;3.3815120000;-76.3856190000;0.019000000;
8798673;AVICOLA POLLO LISTO S.A.S.;Unnamed Road;;Valle del Cauca;763579;3.3817840000;-76.3854300000;0.031000000;INH Brenntag Cali
4174470;Avidesa de Occidente;Km 4 de la vía Buga - Tuluá, , Valle del Cauca, Colombia;;;;3.9476600000;-76.2766900000;0.040000000;INH Brenntag Cali
689121;Avon de Colombia s a;Cl14 59-61, Medellin, Antioquia;;;;6.2183600000;-75.5849900000;0.040000000;Destinatario
72923791;Azelis Colombia s a s;75 97d Sur194 97A Sur 270 97d Sur129-97d Sur357 Carrera 49d Carrera 49d Carrera 49d Calle 97b Sur;La Estrella;Antioquia;055468;6.1284430000;-75.6323230000;0.019000000;
7743799;Azul Colchones S.A. - Luis Gerardo Parra Gomez;302-3090 Carrera 6a;Cali;Valle del Cauca;760003;3.4564600000;-76.5158850000;0.010000000;INH Brenntag Cali
637253;azul-K Ltda;45a Sur2-45a Sur98 Carrera 59a;Bogotá;Bogotá;110611;4.5936800000;-74.1484950000;0.048000000;Clientes
8698118;B. ALMANT & CIA S.A.S.;921-9551 Carrera 21;El Berraejel;Valle del Cauca;760507;3.5518440000;-76.5058270000;0.031000000;INH Brenntag Cali
2362416;BALQUIMIA SAS;352-3584 Carrera 4;Cali;Valle del Cauca;760003;3.4607930000;-76.5130530000;0.048000000;INH Brenntag Cali
7316139;Barragan Salvador Jairo;Cauca Seco;;Valle del Cauca;763537;3.4890290000;-76.4721020000;0.019000000;INH Brenntag Cali
50526741;Bascila cementos C/gena?;Carretera A Mamonal;Cartagena de Indias;Bolívar;130013;10.3640460000;-75.5079650000;0.031000000;
15771863;BASCULA  EL CERRITO;Ginebra-Guacarí;;Valle del Cauca;763517;3.7252770000;-76.3212990000;0.031000000;
734530;Bascula Arango;Cl12bs 51c-70, Medellin, Antioquia;;;;6.1964600000;-75.5901200000;0.402000000;Basculas
16431142;Bascula Bellini Madrid;#8-31 962 954-9154 Carrera 1 Carrera 1 Carrera 1;Madrid;Cundinamarca;250030;4.7307810000;-74.2579680000;0.050000000;Basculas
11079098;Bascula Caqueza;Vía Bogotá - Villavicencio;;Cundinamarca;251827;4.4184480000;-73.9845250000;0.031000000;Basculas
5724744;Bascula Chatarrera;57r Sur31-57r Sur97 Carrera 70c;Bogotá;Bogotá;111921;4.5936340000;-74.1621820000;0.031000000;Basculas
9126306;Bascula Chuscal;La Vega-El Rosal;;Cundinamarca;253618;4.9344830000;-74.3048570000;0.031000000;Basculas
12646008;Bascula CLC Cartagena;6 732 Calle 73 Carrera 56 Variante Mamonal Gambote;Cartagena;Bolívar;130001;10.3443910000;-75.4941620000;0.031000000;Basculas
7239082;Bascula de Arroyohondo;27a176 Calle 15 Zona Industrial Arroyohondo;Yumbo;Valle del Cauca;760502;3.5223370000;-76.4987850000;0.019000000;Basculas
10404491;Bascula Dersa;5c9 34C-37 4b95 352-3584 Calle 5c Carrera 36 Calle 5c Avenida Carrera 36;Bogotá;Bogotá;111611;4.6107990000;-74.1043980000;0.031000000;Basculas
7447567;bascula digital camionera;362-3698 Calle 11a;Bogotá;Bogotá;111611;4.6173630000;-74.0998130000;0.019000000;Basculas
1779511;Bascula Dis Promyl;81-899 Carrera 7B;Barranquilla;Atlántico;;10.9469420000;-74.7700290000;0.040000000;Basculas
50543649;Bascula Ecoiron SAS C/gena;7-19 7 Variante Mamonal Gambote Variante Mamonal Gambote Variante Mamonal Gambote;Cartagena de Indias;Bolívar;130009;10.3480410000;-75.4834390000;0.031000000;
49374511;Bascula El Ancla;56350 56350 59171 56523 56350-56572 Carrera 5 Carrera 5 Carrera 5 Carrera 5 Carrera 5;Cali;Valle del Cauca;760004;3.4648550000;-76.4928110000;0.010000000;
10194131;Bascula El Galpon - Lindet;1757 17-31 1756 123b2-123b84 Calle 17d Carrera 124 Carrera 124 Carrera 124;Bogotá;Bogotá;110921;4.6890140000;-74.1600000000;0.031000000;Basculas
10486152;Bascula Electronica Improsepinal Bta;51-10 Calle 58d Sur;Bogotá;Bogotá;111911;4.5813190000;-74.1525970000;0.040000000;Basculas
2505325;Bascula Generoso Mancini;821-8281 Calle 106;Barranquilla;Atlántico;080001;11.0395620000;-74.8244360000;0.031000000;Basculas
7285528;bascula Huevos Kike;Villa Rica-Caloto;;Cauca;191049;3.1001920000;-76.4302550000;0.019000000;Basculas
9618618;Bascula La Nubia;Sector La Nubia;;Valle;760021;3.4423030000;-76.4615840000;0.031000000;Basculas
22728903;bascula los tigres;# 17 A - 28 1780 17a25 17a99-17a1 Carrera 65b Carrera 65b Carrera 65b Carrera 65b;Bogotá;Bogotá;111611;4.6387620000;-74.1131130000;0.019000000;Basculas
15167680;Bascula M Sierra Ferreteros;Carrera 68d;Bogotá;Bogotá;110931;4.6418660000;-74.1219590000;0.050000000;Basculas
752089;Bascula mediacanoa;Av 40-82, Buga, Valle Cauca;;;;3.8988280000;-76.3761760000;0.101000000;Basculas
21858726;bascula metales Jaivic;#17-50 126a65 1715 172-1790 Carrera 126a Carrera 126a Calle 17 Bis Carrera 126a;Bogotá;Bogotá;110921;4.6902550000;-74.1611850000;0.019000000;Basculas
10161640;Bascula NN La Victoria;# 69-45 69-50 6949 6999-6949 Calle 35A Sur Calle 35 Sur Calle 35A Sur Calle 35 Sur;Bogotá;Cundinamarca;110841;4.6116310000;-74.1371900000;0.031000000;Basculas
12868448;Bascula POLCA Cerrito;Ginebra-Guacarí;;Valle del Cauca;763517;3.7255500000;-76.3215640000;0.031000000;Basculas
822539;Bascula POLCA Planeta Rica;25;Planeta Rica;Córdoba;;8.4146940000;-75.5747790000;0.050000000;Basculas
822525;Bascula POLCA Sincelejo;Av 25, Sincelejo, Sucre;;;;9.3226260000;-75.3147300000;0.040000000;Basculas
1919343;Bascula Servipesados del Sur;57r Sur31-57r Sur97 Carrera 70c;Bogotá;Bogotá;111921;4.5936150000;-74.1625670000;0.080000000;Basculas
1878561;Bascula TOP-TEC;37-99 I-50;Manizales;Caldas;;5.0354560000;-75.4620070000;0.048000000;Basculas
1767317;Basf La Calera;Via Santa Elena y Chingaza;;Cundinamarca;251208;4.7235510000;-73.9498020000;0.100000000;Remitentes
50527606;Basscula Exc y Metales;Variante Mamonal Gambote;;Bolívar;130009;10.3504090000;-75.4815150000;0.031000000;
68162074;Baterias JARCO;26-32 41-19 41-19 26-31 2635 262-2696 Calle 41 Calle 41 Calle 41 Carrera 26 Carrera 26 Calle 41;Palmira;Valle del Cauca;763532;3.5370680000;-76.2958510000;0.010000000;Talleres
10387462;Bavara Yumbo Porteria;25a105 Carretera Cali - Yumbo;Yumbo;Valle del Cauca;760502;3.5340330000;-76.4935470000;0.090000000;Destinatario
11012123;Bavaria Duitama;Duitama-Tibasosa;;Boyacá;152268;5.8039600000;-73.0040300000;0.031000000;Destinatario
10402911;Bavaria Tocancipa;Bogotá - Tunja;Gambita;Cundinamarca;251017;4.9482300000;-73.9407800000;0.031000000;Destinatario
639762;Bavaria Yumbo Descargue;25a2 Carretera Cali - Yumbo;Yumbo;Valle del Cauca;760502;3.5343460000;-76.4915230000;0.090000000;INH Brenntag Cali
6345707;Bayer B/quilla A;17a1-17a67 Carrera 50;Soledad;Atlántico;083002;10.9421270000;-74.7686140000;0.031000000;
6344977;Bayer de Colmobia;17b1-17b167 Carrera 50;Soledad;Atlántico;083002;10.9419900000;-74.7689700000;0.010000000;
9060665;BBCH Amparo -Tocayo;Loboguerrero - Mediacanoa;;Valle del Cauca;760547;3.8227110000;-76.5966250000;0.100000000;Versionadero
9099690;BBCH La Yolomba;Loboguerrero - Mediacanoa;;Valle del Cauca;760527;3.7901300000;-76.6386700000;0.100000000;Versionadero
4698991;Beisbol de Colombia;Cl42 34b-79, Palmira, Valle Cauca;;;;3.5391220000;-76.3058610000;0.040000000;INH Brenntag Cali
55117473;Bel Star SA;Via Belstar;;Cundinamarca;251017;4.9463490000;-73.9323540000;0.031000000;Destinatario
2480150;BELALCAZAR DE PARRA MARIA DEL SOCORRO;26b 12-26b 160 Transversal 103;Cali;Valle del Cauca;760020;3.4376770000;-76.4803520000;0.031000000;INH Brenntag Cali
40438842;Belleza Express;Autopista Cali Jamundi;Cali;Valle del Cauca;760030;3.3236080000;-76.5208020000;0.069000000;
4654487;Belleza Express S.A.;Cl36 137-43, Cali, Valle Cauca;;;;3.3236110000;-76.5213000000;0.040000000;INH Brenntag Cali
2364792;BENAVIDES HERRAN MARTHA;282-28104 Calle 27;Palmira;Valle del Cauca;763533;3.5244940000;-76.2993630000;0.031000000;INH Brenntag Cali
8624648;Berhlan de Colombia s a s;La Tebaida-Armenia;La Francia;Quindío;633020;4.4593390000;-75.7908190000;0.031000000;
23726537;Berlhan Colombia;12-09 42 La Tebaida-Armenia Calle 12 La Tebaida-Armenia;La Tebaida;Quindío;633020;4.4588500000;-75.7907200000;0.069000000;
8080890;BERNARDO DE JESUS ALVAREZ RENGIFO;5 Norte2 Calle 49 Norte;Cali;Valle del Cauca;760003;3.4760320000;-76.5082210000;0.031000000;INH Brenntag Cali
8763662;BIAGRO S.A.S.;319-3221 Carrera 3e;Cartago;Valle del Cauca;762021;4.7548150000;-75.8975730000;0.031000000;INH Brenntag Cali
8080910;BIGPLAS Y SOLUCIONES S.A.S.;30-56 Carrera 6;Cali;Valle del Cauca;760003;3.4575130000;-76.5142010000;0.031000000;INH Brenntag Cali
7442226;Bimbo de Colombia S.A.;103-10209 Carrera 32;Yumbo;Valle del Cauca;760502;3.5103620000;-76.5175250000;0.019000000;INH Brenntag Cali
40531245;Bio D;Facatativá - El Vino;;Cundinamarca;253058;4.8446120000;-74.3461030000;0.069000000;
722126;Bio D s a;Facatativá - El Vino;;Cundinamarca;253058;4.8460200000;-74.3457190000;0.150000000;Clientes
23217083;Bio Group Expert S A S;41-46 #41-51 41-49 4146 4134-4148 Calle 31 Calle 31 Calle 32 Calle 31 Calle 31;Itagüi;Antioquia;055412;6.1614580000;-75.6136090000;0.031000000;
8233267;Bioalcohol de Colombia;1568-15178 Funza-Cota;Funza;Cundinamarca;250020;4.7138290000;-74.2084830000;0.010000000;
5468995;BioEnergy;Puerto Lopez - Puerto Gaitan;;Meta;502007;4.1778400000;-72.6038900000;0.200000000;
10242284;Biominerales Colombia;13218 1332 13379-1331 Calle 17f Calle 17f Avenida Calle 17;Bogotá;Bogotá;110921;4.6951100000;-74.1646500000;0.031000000;
8698130;BIOTEC LABORATORIO S.A.S.;Vía a La Buitrera;Cali;Valle del Cauca;760032;3.3668040000;-76.5599080000;0.031000000;INH Brenntag Cali
11096063;Biotecnoligia Agricola;# 17-110 1820 17136 17a29-17a1 Carrera 4 Carrera 4 48 Carrera 4;Cartago;Valle del Cauca;762022;4.7502550000;-75.9206240000;0.019000000;
65397555;Biotecnologia Agricola;17-142 ##4-25 455 42-484 Calle 17a Calle 17a Calle 18 Carrera 4;Cartago;Valle del Cauca;762022;4.7500160000;-75.9207350000;0.010000000;
24494729;Biotrade Colombia;4-24 1727 16a79 16a2-16a82 Carrera 5 Carrera 5 Carrera 4 Transversal 4;Mosquera;Cundinamarca;250040;4.6951600000;-74.1732000000;0.019000000;
14800106;Bolivariana de Disolventes;#13-21 #13-21 12316 1232-12398 Calle 13 Calle 13 Carrera 123 Carrera 123;Bogotá;Bogotá;110921;4.6778240000;-74.1726970000;0.031000000;Clientes
2376907;BOLSAS PLASTICAS LA 15;192-19118 Carrera 3;Cali;Valle del Cauca;760044;3.4560940000;-76.5264650000;0.031000000;INH Brenntag Cali
8080923;BOLSAS PLASTICAS LIMITADA;17a1-17a77 Calle 33a;Cali;Valle del Cauca;760010;3.4419260000;-76.5119790000;0.031000000;INH Brenntag Cali
7370864;Botero Gomez Francisco Libardo;La Tebaida-El Caimo;;Quindío;630008;4.4749180000;-75.7182380000;0.010000000;INH Brenntag Cali
21521612;Branchen Colombia;42201 5327 4221 42171-421 Calle 56 Calle 56 Carrera 45 Calle 56;Copacabana;Antioquia;051040;6.3508400000;-75.5056700000;0.019000000;
16047317;Brenntag;32137 32137 32133 32149-321 Calle 13 Calle 13 Calle 13 Calle 13;Yumbo;Valle del Cauca;760502;3.5078960000;-76.5091440000;0.040000000;
626074;Brenntag B/quilla;Cl30-64, Barranquilla, Atlantico;;;;10.9544800000;-74.7863400000;0.161000000;Clientes
637631;Brenntag Itagui;Cl50 41, Itagui, Antioquia;;;;6.1658800000;-75.6062100000;0.161000000;Clientes
752247;Brenntag Mosquera;Cl3-46, Mosquera, Cundinamarca;;;;4.7130700000;-74.2360200000;0.161000000;Clientes
6509122;Brenntag Yumbo;32222-32324 32238 Calle 13 Calle 13;Yumbo;Valle del Cauca;760502;3.5070650000;-76.5095790000;0.050000000;INH Brenntag Cali
69628877;Brenntag, zona cargue;32238 32238 32212 32219-32165 Calle 13 Calle 13 Calle 13 Calle 13;Yumbo;Valle del Cauca;760502;3.5072620000;-76.5101970000;0.019000000;
7837035;Brinsa;Cajicá - Zipaquirá;El Tejar;Cundinamarca;250247;4.9711870000;-74.0018200000;0.031000000;
1766831;Brinsa;1 US45A;Cajicá;Cundinamarca;;4.9709690000;-74.0005490000;0.080000000;
2015123;BSN MEDICAL LTDA;352-35100 Calle 15;Yumbo;Valle del Cauca;;3.4991560000;-76.5072330000;0.080000000;INH Brenntag Cali
15235643;Buitrago B. Carlos BTA;2142 Carrera 70;Bogotá;Bogotá;110931;4.6533280000;-74.1187410000;0.080000000;Destinatario
1907819;Buitrago M Luis Abel CALI;3AN1-3AN99 Calle 56;Cali;Valle del Cauca;;3.4869060000;-76.5134730000;0.080000000;INH Brenntag Cali
8614373;Burbano Hoyos Edgar;17c2-17c72 Calle 25;Cali;Valle del Cauca;760042;3.4409480000;-76.5189190000;0.010000000;
1998156;BURBANO HOYOS EDGAR ANTONIO;192-19100 Calle 15;Cali;Valle del Cauca;;3.4392240000;-76.5259740000;0.080000000;
2015118;BUSSCAR DE COLOMBIA S.A.S.;Unnamed Road;;Risaralda;660007;4.8093470000;-75.8261220000;0.080000000;INH Brenntag Cali
30772544;C&F diesel inyection;5-76 63 3258 5102 5121-51 Calle 33 Calle 33 Carrera 6 Calle 33 Calle 33;Cali;Valle del Cauca;760003;3.4578950000;-76.5135520000;0.019000000;
30772557;C&F diesel inyection;5-76 63 3258 5102 5121-51 Calle 33 Calle 33 Carrera 6 Calle 33 Calle 33;Cali;Valle del Cauca;760003;3.4578950000;-76.5135520000;0.019000000;
1979329;C&SUPER DE ALIMENTOS SA;1-99 I-50;Manizales;Caldas;;5.0363450000;-75.4569290000;0.080000000;
8080924;C.I INDUSTRIAS FRUSABOR S.A;11-45 Calle 41;Cali;Valle del Cauca;760010;3.4502240000;-76.5060730000;0.031000000;INH Brenntag Cali
7943539;C.I. Rodolfo Quintero Tejada;Vijes-Yotoco;El Lago;Valle del Cauca;760557;3.7069370000;-76.4273400000;0.010000000;INH Brenntag Cali
47566582;C.I. Yumbo S A S;Vía sin nombre;Yumbo;Valle del Cauca;760502;3.5193830000;-76.5020300000;0.031000000;
1632409;CABAL RAUL DARIO;Kr53 14b-43, Cali, Valle Cauca, Colombia;;;;3.4051880000;-76.5296400000;0.040000000;INH Brenntag Cali
2381580;CAICEDO ADEMIR ALEXIS;19b80-19b100 Diagonal 23;Cali;Valle del Cauca;760042;3.4357230000;-76.5203450000;0.031000000;
1322578;Cajamarca;61-699 Calle 10;Cajamarca;Tolima;;4.4416260000;-75.4271500000;0.080000000;Ruta Palmira Bogota x Soacha
2372861;CAJAS COLOMBIANAS S.A.S.;0 Sur2-0 Sur182 Transversal 1;;Valle del Cauca;760006;3.4911460000;-76.4811560000;0.031000000;INH Brenntag Cali
1112303;Cajero Bancol Lloreda;2950 Calle 15;Yumbo;Valle del Cauca;;3.5186610000;-76.4999420000;0.040000000;Clientes
1352961;Caldas;491-4999 Calle 131S;Caldas;Antioquia;;6.0904330000;-75.6362770000;0.048000000;
1364816;Caldas;2-100 I-25;Caldas;Antioquia;;6.0889780000;-75.6316590000;0.080000000;
23980974;Cales de Colombia;41A - 59 #46-2 41c34 41a61-41a29 Calle 50 Calle 50 Carrera 42 Calle 50;Itagüi;Antioquia;055412;6.1668680000;-75.6075560000;0.019000000;
8698233;CALIPISCINAS S.A.S.;62-682 Carrera 76a;Cali;Valle del Cauca;760033;3.3893470000;-76.5443320000;0.031000000;INH Brenntag Cali
1769938;CaliPlasticos Cartago;84 US25N;Cartago;Valle del Cauca;;4.6963970000;-75.9220730000;0.064000000;INH Brenntag Cali
12170637;CAMPO MOSQUERA BEYMAR;Morales;Morales;Cauca;190557;2.7539120000;-76.6281140000;0.031000000;
8679865;Campofer SAS;25a401-25a789 Carretera Cali - Yumbo;Yumbo;Valle del Cauca;760502;3.5301700000;-76.4930210000;0.031000000;INH Brenntag Cali
8698267;CAMPOFERT S.A.S.;25a401-25a789 Carretera Cali - Yumbo;Yumbo;Valle del Cauca;760502;3.5302820000;-76.4929690000;0.031000000;INH Brenntag Cali
67952803;canecas Pulido;20 B -110 15-31 #12B - 62 142 142-14140 Carrera 20e Carrera 20e Carrera 20g Calle 7b Calle 13;Yumbo;Valle del Cauca;760502;3.5516880000;-76.4945240000;0.019000000;
2609499;CAOEL;Santander de Quilichao-Palmira;;Cauca;191049;3.0330230000;-76.4747250000;0.031000000;
1692108;Carabali Valverde;Entrada A La Cl34-4, Cali, Valle Cauca, Colombia;;;;3.4548930000;-76.5121500000;0.040000000;Destinatario
713275;Carboquimica Bogota;Tr72f 57as-64, Bogota, Cundinamarca;;;;4.5997950000;-74.1683520000;0.241000000;Clientes
5945261;Carboquimica C/gena;Ruta 3 de Ajover;;Bolívar;130009;10.3007280000;-75.5007200000;0.090000000;Clientes
1383965;Carmen Bolivar a  Bosconia;1-99 Calle 22;El Carmen de Bolívar;Bolívar;;9.7106490000;-75.1102850000;0.048000000;
1384027;Cartagena a Medellin;2-100 I-90;Turbaco;Bolívar;;10.3684020000;-75.4525670000;0.048000000;
7347508;Carton de Colombia;Carton de Colombia;Yumbo;Valle del Cauca;760502;3.5651350000;-76.4838080000;0.019000000;
8698268;CARTONES AMERICA S.A.;1 Norte24-1 Norte164 Calle 55 Norte;Cali;Valle del Cauca;760002;3.4789490000;-76.5030810000;0.031000000;INH Brenntag Cali
8282719;Carvajal Pulpa y Papel;Via Guachene;;Cauca;191087;3.1977090000;-76.4033790000;0.031000000;
1807981;Casa Alain D Gallego;181-1899 Carrera 46;Cali;Valle del Cauca;;3.4102870000;-76.5236870000;0.048000000;
18534168;Casa Anibal Torres;6 Callejon la T Vía a La Buitrera;Cali;Valle del Cauca;760032;3.3687000000;-76.5617230000;0.031000000;
1352568;Casa Caled Palacio ZNL193;1 Palmira Cerrito;El Cerrito;Valle del Cauca;;3.6114200000;-76.2746800000;0.161000000;
25606624;Casa Familiar Carlos;33-15 39-50 33a35 33a79-33a1 Calle 39a Calle 39a Carrera 33a Calle 39a;Tuluá;Valle del Cauca;763021;4.0730900000;-76.1939800000;0.031000000;
7688616;Casa Frenos;39 Norte2-39 Norte124 Carrera 4 Norte;Cali;Valle del Cauca;760003;3.4689810000;-76.5139730000;0.031000000;
7686127;casa frenos Hector Pinto;3 Norte2-3 Norte112 Calle 39 Calle 39 Norte;Cali;Valle del Cauca;760003;3.4688550000;-76.5138830000;0.019000000;
4014126;Casa Grajales;Calle 14;La Unión;Valle del Cauca;761540;4.5300700000;-76.0952180000;0.050000000;
40408044;Casa Juan C Romero;110a-33 31-78 31-78 7750 345-31 Carrera 77 Calle 3 Carrera 77 Carrera 77 Carrera 77;Medellín;Antioquia;050044;6.2138890000;-75.6003330000;0.031000000;
7372590;Casa Juan Carlos Rincon;71b2-71b40 Carrera 1a 5;Cali;Valle del Cauca;760006;3.4862390000;-76.4879310000;0.031000000;Parqueaderos
8557854;Casa Luker;662-6698 Calle 19;Bogotá;Bogotá;111611;4.6423000000;-74.1125200000;0.019000000;
63313084;Casa Luker S a S funza;Vía sin nombre;;Cundinamarca;250208;4.7842630000;-74.1818010000;0.019000000;
7495750;Casa Muebles Rivera;23-33 Calle 72c;Cali;Valle del Cauca;760015;3.4415130000;-76.4877510000;0.010000000;INH Brenntag Cali
12046982;Casa Palomeque;Unnamed Road;Cali;Valle del Cauca;760009;3.4922040000;-76.5433400000;0.031000000;
11268892;Casa Tarros;4E-30 455 Calle 45 Carrera 5 Calle 45;Cali;Valle del Cauca;760003;3.4613670000;-76.5052720000;0.100000000;
2364834;CASTAÑO M JUAN CARLOS;172-17112 Carrera 2;Cali;Valle del Cauca;760044;3.4558700000;-76.5283400000;0.031000000;
7999787;Castaño Serna Mireya;211-21145 Carrera 10;Jamundí;Valle del Cauca;764001;3.2701270000;-76.5367190000;0.010000000;
1909164;CASTAÑO SERNA MIREYA;2-100 Calle 4;Cali;Valle del Cauca;;3.4539530000;-76.5507250000;0.040000000;INH Brenntag Cali
69138517;Caucaseco;Vía Sin Nombre;;Valle del Cauca;763537;3.4834920000;-76.4621030000;0.031000000;
6035235;CCL YUMBO;16128-16202 Carrera 34;Arroyo Hondo;Valle del Cauca;760502;3.5054350000;-76.5008330000;0.200000000;
6498848;CDA El Paraiso Palmira;202-2064 Carrera 1;Palmira;Valle del Cauca;763533;3.5187010000;-76.2770470000;0.090000000;Talleres
7253508;CDA Itac;13121-13575 Carrera 25a;Yumbo;Valle del Cauca;760502;3.5359150000;-76.4980280000;0.031000000;
22367806;CDA Palmira;35 #35-91 3568 3550-35100 Calle 47 Calle 47 Calle 47 Calle 47;Palmira;Valle del Cauca;763531;3.5422200000;-76.3079400000;0.031000000;
8712102;CEMENTOS ARGOS FUSAGASUGA;Fusagasuga-Tibacuy;Fusagasugá;Cundinamarca;252211;4.3448250000;-74.3808180000;0.031000000;Destinatario
1786052;Cemex planta Caracolito,Payande;Km 5 de la vía Bueno Aires - PayandÚ, , Tolima;;;;4.3098780000;-75.0997660000;0.040000000;Destinatario
8698269;CENAGRAL S.A.S.;Zona Industrial Arroyohondo;Yumbo;Valle del Cauca;760502;3.5238370000;-76.5008790000;0.031000000;INH Brenntag Cali
722124;Centelsa S.A.;Kr39 5-75, Cali, Valle Cauca;;;;3.4953800000;-76.5219100000;0.040000000;INH Brenntag Cali
6506945;Central de Disolventes;Vda. Isla, Funza, Cundinamarca, Colombia;Funza;Cundinamar;;4.7532970000;-74.2448030000;0.069000000;
2460626;CENTRAL LECHERA;Vía Panamericana;Manizales;Caldas;170003;5.0405090000;-75.4394590000;0.031000000;
1709694;Central Lechera de Manizales;Av Tunel-26, Manizales, Caldas, Colombia;;;;5.0494660000;-75.4818910000;0.040000000;Destinatario
12628378;Cerveceria de Boyaca plta Duitama;Duitama-Tibasosa;;Boyacá;152268;5.8043160000;-73.0044810000;0.090000000;
7233201;Cerveceria del Valle S.A.;;Yumbo;Valle del Cauca;;3.5339910000;-76.4916440000;0.031000000;INH Brenntag Cali
10870219;Cerveceria Union;36b88 52b2 52b71-52b1 Calle 36b Calle 36b Carrera 53;Itagüi;Antioquia;055413;6.1710010000;-75.6207410000;0.031000000;
12638503;Chemi World Cartagena;6 6 Variante Mamonal Gambote Variante Mamonal Gambote Variante Mamonal Gambote;Cartagena;Bolívar;130001;10.3408650000;-75.4925640000;0.031000000;Remitentes
10879333;Chemicoaching;35b68 15-155 15268 Parqueadero Centro Industrial Panorama Carrera 36 Carrera 35b Calle 16;Yumbo;Valle del Cauca;760502;3.5000960000;-76.5051660000;0.031000000;Destinatario
2426647;CHILITO DAGOBERTO;351-3575 Calle 25;Cali;Valle del Cauca;760041;3.4216450000;-76.5207100000;0.031000000;INH Brenntag Cali
39679839;Chips Y Barnices Dinicol S A S;Bogotá - Tenjo;;Cundinamarca;250017;4.7775040000;-74.1614700000;0.031000000;
1907379;Cia Internal Alimentos;1-76 I-25A;Guachené;Cauca;;3.2033140000;-76.4189290000;0.080000000;INH Brenntag Cali
41962449;Ciacomeq;Vía Bogotá - Villavicencio;Chipaque;Cundinamarca;251807;4.4519580000;-74.0453890000;0.031000000;
72107304;Ciamsa Buenaventura;Calle 8 Calle 12;Buenaventura;Valle del Cauca;764501;3.8923750000;-77.0684120000;0.031000000;
2484708;CINDY COCO;261-2625 Calle 95;;Valle del Cauca;763537;3.4620260000;-76.4690490000;0.031000000;
8539128;Clarenst;Zona Industrial Arroyohondo;Yumbo;Valle del Cauca;760502;3.5236000000;-76.5000240000;0.019000000;
8512159;Clean Master S.A.S.;11b1-11b107 Calle 26;Cali;Valle del Cauca;760010;3.4481710000;-76.5173240000;0.010000000;INH Brenntag Cali
8135717;cliente;Vía Panamericana;Manizales;Caldas;170003;5.0349500000;-75.4612590000;0.031000000;
2439337;Clin. Rafael Uribe U;24 Norte29-24 Norte89 Avenida 2b Norte;Cali;Valle del Cauca;760046;3.4671420000;-76.5245500000;0.031000000;Hospitales
2434968;Clinica de Occidente;5 Norte2-5 Norte94 Calle 18 Norte;Cali;Valle del Cauca;760046;3.4604340000;-76.5301720000;0.031000000;Hospitales
2434966;Clinica Esperanza;441-44103 Avenida Joaquín Borrero Sinisterra;Cali;Valle del Cauca;760036;3.4155510000;-76.5400560000;0.031000000;Hospitales
2434965;Clinica Imbanaco;5a1-5a81 Carrera 38a;Cali;Valle del Cauca;760042;3.4243590000;-76.5445850000;0.031000000;Hospitales
2434967;Clinica Rey David;72-798 Carrera 34;Cali;Valle del Cauca;760042;3.4268590000;-76.5381620000;0.031000000;Hospitales
2439340;Clinica Sebastian de Belalcazar;6 Norte13-6 Norte199 Avenida 4 Norte;Cali;Valle del Cauca;760045;3.4548940000;-76.5372620000;0.031000000;Hospitales
2439338;CLINICA VERSALLES;23 Norte1-23 Norte115 Avenida 5a Norte;Cali;Valle del Cauca;760046;3.4641460000;-76.5280150000;0.031000000;Hospitales
8798309;CLOROX DE COLOMBIA S.A. CALI;Carrera 31;Yumbo;Valle del Cauca;760502;3.5145520000;-76.5045570000;0.031000000;INH Brenntag Cali
38278748;Clorsa Limitada;Barbosa-Puerto Berrío;;Antioquia;053047;6.5237000000;-75.2470580000;0.031000000;
8698277;CMYK COLOR S.A.S.;1-35 Calle 1 Oeste;Cali;Valle del Cauca;760044;3.4507820000;-76.5407630000;0.031000000;INH Brenntag Cali
69819829;Coats Cadena;# 9A-3 # 6E-13 911 922-92 Calle 6 Este Calle 6 Este Carrera 9 Calle 6;Dosquebradas;Risaralda;660003;4.8102690000;-75.6745250000;0.090000000;
12459866;Coats Cadena Andina;9a20 6127 6 Este113-6 Este1 Carrera 9a Carrera 11 Calle 6 Este;Pereira;Risaralda;660003;4.8096740000;-75.6741010000;0.019000000;
7493610;Cobres de Colombia;111-11281 Carrera 40;Cali;Valle del Cauca;760046;3.4939460000;-76.5200400000;0.010000000;
36852689;Coca Cola Femsa;94250 94250 94191 94239 94190-94480 Calle 18 Calle 18 Calle 18 Calle 18 Calle 18;Cali;Valle del Cauca;760032;3.3738570000;-76.5273820000;0.031000000;
10957903;Coca Cola planta embotelladora;96-95 25c19 25c51-25c25 Carrera 96 Carrera 96 Calle 25c Bis B Carrera 96;Bogotá;Bogotá;110911;4.6813190000;-74.1270100000;0.019000000;
1909579;COCACOLA;2-100 Calle 18;Cali;Valle del Cauca;;3.3720030000;-76.5272140000;0.080000000;INH Brenntag Cali
55600998;Codinsa;16801 16720-16820 #81 81 77-63 Carrera 9 Norte Carrera 9 Norte Carrera 35b Carrera 35b;Yumbo;Valle del Cauca;760050;3.5009240000;-76.4976640000;0.031000000;Clientes
14431226;cojutepeque;16 16 4A Calle Poniente 3A Avenida Sur 4A Calle Poniente;Cojutepeque;Cuscatlán Department;;13.7208500000;-88.9365980000;0.031000000;
19856679;colchones confort-Diego Taborda;11-34 Calle 10 Calle 10;Dosquebradas;Risaralda;661002;4.8217890000;-75.6865880000;0.031000000;
8509801;colchones sueños del Pacifico;Buga - Tulua - Andalucía;;Valle del Cauca;763038;4.0177250000;-76.2184920000;0.019000000;
1888826;Colchones Universal;Km 7 de la vía Armenia - Tebaida, , Quindio, Colombia;;;;4.5045190000;-75.7130870000;0.040000000;Destinatario
8690475;COLCHONES Y ESPUMAS SENSACIÓN S.A.S.;212-2186 1555 Calle 21 Carrera 17;Cali;Valle del Cauca;760042;3.4427300000;-76.5202670000;0.031000000;
1617033;Coldesivos;1A2-1A100 Calle 39;Cali;Valle del Cauca;;3.4654980000;-76.5114120000;0.048000000;INH Brenntag Cali
7952071;Colfactory;39N-23 Carrera 3 Norte;Cali;Valle del Cauca;760003;3.4685760000;-76.5131460000;0.010000000;
71509092;Colgate Palmoive zona descargue sulfonico;1 99 1-99 197 1 -97 199 10 Calle 43 Calle 43 Calle 43 Calle 43 Calle 43 Calle 43;Cali;Valle del Cauca;760003;3.4684510000;-76.5100410000;0.019000000;
7495904;Colgate Palmolive;1-3 Calle 40;Cali;Valle del Cauca;760003;3.4669450000;-76.5099080000;0.150000000;INH Brenntag Cali
2400295;COLOMBIA INDUSTRIAL AUTOMOTRIZ S.A.S.;231-23251 Calle 13;Yumbo;Valle del Cauca;760502;3.5398210000;-76.4971070000;0.031000000;INH Brenntag Cali
39401676;Colombiana de Plasticos;105c39 34a75 39 Carrera 32 Calle 110 Calle 110 Carrera 32;Manizales;Caldas;170003;5.0304700000;-75.4540200000;0.031000000;
2376842;COLOMBIANA DE QUIMICA INTERNACIONAL S.A.S.;46c1-46c81 Carrera 1;Cali;Valle del Cauca;760003;3.4735850000;-76.5070570000;0.031000000;INH Brenntag Cali
715557;Colombina Bogota;Cl 17 B 35 67, Bogota, Cundinamarca;;;;4.6214460000;-74.0937370000;0.145000000;Clientes
1974028;Colombina del Cauca S.A.;78 I-25;Santander de Quilichao;Cauca;;3.0292550000;-76.4942150000;0.080000000;INH Brenntag Cali
8698286;COLOMBINA S.A. DOSQUEBRADAS;Variante Romelia El Pollo;Dosquebradas;Risaralda;661002;4.8340970000;-75.6958010000;0.031000000;INH Brenntag Cali
5850303;COLOMBINA S.A. LA PAILA;La Paila-Ríopaila;;Valle del Cauca;762528;4.3130110000;-76.0735310000;0.401000000;INH Brenntag Cali
5895403;COLOMBINA S.A. TULUA;;;Valle del Cauca;763027;4.0495210000;-76.2078680000;0.299000000;INH Brenntag Cali
15183350;Colorquimica;#53-73 75ab Sur151 Carrera 53 Colorquímica Calle 77 Sur;La Estrella;Antioquia;055460;6.1594700000;-75.6327700000;0.050000000;
1680912;ColPal;1-3 Calle 40;Cali;Valle del Cauca;760003;3.4668900000;-76.5104560000;0.188000000;INH Brenntag Cali
1998356;COLPOLIMEROS S.A.S;61-699 Calle 29;Cali;Valle del Cauca;;3.4567330000;-76.5171450000;0.080000000;INH Brenntag Cali
7856576;Colserauto;Avenida Ciudad De Cali Avenida Ciudad De Cali;Bogotá;Bogotá;110931;4.6588850000;-74.1349620000;0.019000000;
73543943;Comercializadora Anis;Amagá-Caldas;LA TOLVA;Antioquia;055448;6.0560520000;-75.6408170000;0.010000000;
41096264;Comercializadora Anis S A S;44-06 43a141 43a203 43a2-43a208 Calle 60 Sur Calle 60 Sur Calle 60 Sur Calle 60 Sur;Sabaneta;Antioquia;055450;6.1568710000;-75.6085000000;0.019000000;
69717435;Comercializadora Anis S A S;Amagá-Caldas;;Antioquia;055448;6.0558570000;-75.6410530000;0.031000000;
7813987;Comercializadora Bio Ambiental;Rozo-Palmira;;Valle del Cauca;763537;3.5227390000;-76.4315500000;0.019000000;INH Brenntag Cali
1792697;COMERCIALIZADORA DE COSMETICOS S.A.S.;401-4099 Carrera 2;Cali;Valle del Cauca;;3.4648820000;-76.5102320000;0.048000000;INH Brenntag Cali
2465446;COMERCIALIZADORA DORON;83f Norte337-83f Norte389 Carrera 9 Norte;Cali;Valle del Cauca;760050;3.5046770000;-76.4944050000;0.031000000;
1982762;Comercializadora el Peluquero;181-1899 Calle 19;Cali;Valle del Cauca;;3.4388860000;-76.5213290000;0.080000000;INH Brenntag Cali
1182336;Comercializadora Piedrahita;Cl11 2-91, Cartago, Valle Cauca;;;;4.7529200000;-75.9133000000;0.040000000;INH Brenntag Cali
2020574;Comercializadora Tascon;85120 Calle 5;Cali;Valle del Cauca;760034;3.3799160000;-76.5437580000;0.080000000;
2598081;COMERCIALIZADORA TASCON JAMUNDI;Villa Rica-Jamundí;;Valle del Cauca;764007;3.2505600000;-76.5295650000;0.031000000;
4676443;Comercializadora VRO S.A.S.;Kr14 9-58, Cali, Valle Cauca;;;;3.4435230000;-76.5327860000;0.040000000;INH Brenntag Cali
7265122;Comesa;Cali-Cerrito Oeste;Argelia;Valle del Cauca;763537;3.6074440000;-76.4297930000;0.031000000;
692571;Comestibles Aldor S.A.S.;Kr28 15-47, Yumbo, Valle Cauca;;;;3.5202900000;-76.4946800000;0.040000000;INH Brenntag Cali
2362118;COMEXA DE COLOMBIA;Cali-Cerrito Oeste;Argelia;Valle del Cauca;763537;3.6073930000;-76.4295500000;0.048000000;
2362123;COMEXA DE COLOMBIA;Rozo-Palmira;;Valle del Cauca;763537;3.6073930000;-76.4044740000;0.048000000;
42380630;comp Pinturas Mundial;59-94 59-89 59 59 Sur76 59 Sur1-59 Sur99 Carrera 17b Carrera 17b Carrera 17b Carrera 17b Carrera 17b;Bogotá;Bogotá;110621;4.5612350000;-74.1341120000;0.031000000;
42380638;comp Pinturas Mundial;59-94 59-89 59 59 Sur76 59 Sur1-59 Sur99 Carrera 17b Carrera 17b Carrera 17b Carrera 17b Carrera 17b;Bogotá;Bogotá;110621;4.5612350000;-74.1341120000;0.031000000;
8005799;COMPAÑIA DE EMPAQUES AGROPECUARIOS CIPA;Tulua - Cartago;Cartago;Valle del Cauca;762027;4.7258010000;-75.9154250000;0.031000000;INH Brenntag Cali
8698290;COMPAÑIA DE EMPAQUES INDUSTRIALES S.A.S.;Zona Industrial Arroyohondo;Yumbo;Valle del Cauca;760502;3.5237480000;-76.5031410000;0.031000000;INH Brenntag Cali
62824677;Compañia de Pinturas Mundial;59-91 59 84 59-80 59 Sur85 59 Sur1-59 Sur99 Carrera 17A Carrera 17A Carrera 17A Carrera 17A Carrera;Bogotá;Bogotá;110621;4.5613050000;-74.1339050000;0.019000000;
1917559;Compañia Quimica de Occidente;9-24 Carrera 38;Yumbo;Valle del Cauca;760507;3.4976210000;-76.5251760000;0.031000000;INH Brenntag Cali
52152373;comunidad indigena optu-via campo Alegre;Vía sin nombre;;Valle del Cauca;764508;3.8395500000;-77.0094630000;0.019000000;
16250598;Conalsebos;61-30 59a41 59a99-59a1 Diagonal 47 Sur Diagonal 47 Sur Diagonal 47 Sur Diagonal 47 Sur;Bogotá;Bogotá;110611;4.5912990000;-74.1504670000;0.050000000;
1903697;Conalvias;Via Principal-46, Giron, Santander, Colombia;;;;7.0874940000;-73.1685340000;0.040000000;Destinatario
7889554;Concentrados cavasa Bucanero;Unnamed Road;;Valle del Cauca;763579;3.4072590000;-76.4161790000;0.031000000;
7326275;Conhydra s a;Unnamed Road;Cali;Valle del Cauca;760007;3.3816580000;-76.4896390000;0.019000000;
1603317;Conquimica Medellin;521 Carrera 41;Itagüi;Antioquia;055412;6.1676760000;-75.6043180000;0.080000000;Destinatario
14027085;Conquimica pta Tenjo;Unnamed Road;;Cundinamarca;250208;4.7580200000;-74.1665800000;0.019000000;
6035292;Conquimica Yumbo;32a213 Calle 15;Yumbo;Valle del Cauca;760502;3.5068030000;-76.5025050000;0.100000000;Clientes
69629148;Conquimica zona de cargue;32238 3298 32210 32219-32165 Calle 13 Calle 13 Calle 13 Calle 13;Yumbo;Valle del Cauca;760502;3.5073080000;-76.5104330000;0.019000000;
1903695;Consorcio Hidroelectrico Obras;Km 21 de la vía  Yarumal -Valdivia, , Antioquia, Colombia;;;;7.1332900000;-75.6572090000;0.040000000;Destinatario
46167660;Consorcio obras control;# 26 04 79:20 26-15 7913 792-7920 Carrera 26 Carrera 26 Calle 78 Carrera 26 Calle 79;Cali;Valle del Cauca;760020;3.4368650000;-76.4759150000;0.019000000;
6896025;Construciones Civiles Fausto;34b2-34b60 Calle 58b;Palmira;Valle del Cauca;763531;3.5507710000;-76.3044960000;0.010000000;
72711022;construciones Daniel el castillo;Cedros del Castillo;;Valle del Cauca;764007;3.2773140000;-76.5017490000;0.019000000;
7626921;Construciones Fausto;Vía Palmira-Candelaría;Palmira;Valle del Cauca;763533;3.5048440000;-76.3130050000;0.031000000;
8880468;Construsol Carmen Atrato;Unnamed Road;El Carmen de Atrato;Chocó;271010;5.9245620000;-76.1371050000;0.031000000;
8881603;Construsol Cisneros 1;Barbosa-Puerto Berrío;;Antioquia;053047;6.5406260000;-75.1404040000;0.069000000;
8881677;Construsol Cisneros 2;Barbosa-Puerto Berrío;Santiago;Antioquia;053047;6.5446660000;-75.1606360000;0.100000000;
8881685;Construsol Cisneros 3;Barbosa-Puerto Berrío;Santiago;Antioquia;053047;6.5414470000;-75.1546920000;0.100000000;
9422944;Construsol mina el limon;Unnamed Road;;Antioquia;053047;6.5349810000;-75.1225030000;0.019000000;
7362144;Contegral;Zaragoza-Cartago;;Valle del Cauca;762027;4.7171500000;-75.9204980000;0.031000000;
21546447;Contegral  Cartago;Tulua - Cartago;;Valle del Cauca;762027;4.7172200000;-75.9202100000;0.031000000;
6863520;cooperativa Colanta;171-1759 Carrera 26a;Armenia;Quindío;630003;4.5417660000;-75.6777080000;0.031000000;
14438808;Cooperativa Colanta plta Panetarrica;7-28 7a18 Planeta Rica-Buenavista / RN25-13 Calle 5 Carrera 7a;Planeta Rica;Córdoba;233040;8.4017100000;-75.5828600000;0.031000000;
19527964;Coordinadora de Tanques;65-30 65105 65150 65185-6557 Calle 79b Calle 79b Calle 80 Calle 79b;Medellín;Antioquia;050034;6.2761260000;-75.5752440000;0.050000000;
958393;Coordinadora de Tanques;Cl80 65-55, Medellin, Antioquia;;;;6.2762330000;-75.5749370000;0.040000000;Parqueaderos
3018746;Copidrogas;Funza-Cota;;Cundinamarca;250027;4.7400060000;-74.1794240000;0.050000000;Destinatario
2458478;CORREA Y CORREA LTDA. PLAFICOL;4c131-4c185 Carrera 87 Carrera 86;Cali;Valle del Cauca;760034;3.3797920000;-76.5439910000;0.031000000;INH Brenntag Cali
1987953;Cosmeticos Janny S.A.S.;1-99 Autooriental;Cali;Valle del Cauca;;3.4639660000;-76.4842570000;0.080000000;INH Brenntag Cali
4654549;Cosmeticos Yani;Kr7dbis 67-50, Cali, Valle Cauca;;;;3.4608110000;-76.4864410000;0.040000000;Destinatario
10553260;COVERPLAST;3752 Carrera 37 Calle 14;Yumbo;Valle del Cauca;760050;3.4939690000;-76.5115000000;0.031000000;
5724658;Croydon;45a Sur1-45a Sur99 Carrera 59a;Bogotá;Bogotá;110611;4.5943300000;-74.1488150000;0.050000000;
12647092;Crucero Candelaria Caloto;153959 Candelaria-Puerto Tejada Florida;;Valle del Cauca;763579;3.3958280000;-76.3539430000;0.200000000;
22418446;Crucero Guali;Villa Rica-Caloto;;Cauca;191049;3.0796710000;-76.4184500000;0.031000000;
12647091;Crucero Palmira Candelaria;Palmira-Candelaria;;Valle del Cauca;763537;3.5245790000;-76.3375690000;0.299000000;
22418475;Crucero Villa Rica-Caloto;Villa Rica-Caloto;;Cauca;191067;3.1582380000;-76.4586380000;0.035000000;Puntos de Control
1941830;Cruz Salazar Alexandra;121-1299 Calle 56;Cali;Valle del Cauca;;3.4478150000;-76.4962040000;0.080000000;INH Brenntag Cali
47742060;Csa Jian Ojeda;46-29 # 44 - 110 46-27 46a80 46a46-46a146 Carrera 47 Carrera 47 Carrera 46a Carrera 47 Carrera 46a;Palmira;Valle del Cauca;763531;3.5421920000;-76.3183780000;0.023000000;
1909253;CUARTAS RAMIREZ FABIAN;2-100 Calle 15;Cali;Valle del Cauca;;3.4373290000;-76.5259870000;0.080000000;INH Brenntag Cali
2490775;CUARTAS Y CALDERON Y CIA S.C.A;Buenaventura-La Paila;Guayabal;Valle del Cauca;763037;4.0049880000;-76.2324040000;0.040000000;
23507049;Cumins de la Montaña;15-16 1580 15151 1524-15288 Carrera 38 Carrera 38 Carrera 38 Carrera 38;Cali;Valle del Cauca;760050;3.4922240000;-76.5079850000;0.019000000;
2362200;CURTIPIELES S.A.S.;201-20141 Calle 8;El Cerrito;Valle del Cauca;763520;3.6852340000;-76.3207960000;0.048000000;INH Brenntag Cali
8698311;DEQUIMICOS LTDA.;15-11 Carrera 5;Cali;Valle del Cauca;760044;3.4532310000;-76.5289030000;0.031000000;INH Brenntag Cali
14507763;Derrumbe La paloma;Variante Ibagué - Armenia;;Tolima;732507;4.4395160000;-75.4915620000;0.031000000;
796895;Descafecol;Av 50, Manizales, Caldas;;;;5.0437880000;-75.4224960000;0.040000000;Destinatario
66683574;destileria Riopaila;Vía Sin Nombre;;Valle del Cauca;762528;4.3209260000;-76.0885630000;0.031000000;
70289070;Detergentes s a s;51 51 5c-9 37b6 37b2-37b98 Calle 5b Calle 5b Carrera 36 Carrera 37b Carrera 37b;Bogotá;Bogotá;111611;4.6112110000;-74.1052610000;0.031000000;
663331;Detergentes s.a;37b2-37b98 Calle 5b;Bogotá;Bogotá;111611;4.6120410000;-74.1051270000;0.090000000;Clientes
7678358;Detergentes SA Bascula;37b2-37b98 Calle 5b;Bogotá;Bogotá;111611;4.6108500000;-74.1049900000;0.050000000;Basculas
2887465;DETERQUIN Y CIA LTDA;101-10211 Carrera 37;Cali;Valle del Cauca;760046;3.4968520000;-76.5200550000;0.031000000;INH Brenntag Cali
7280576;Diagnosticentro las palmas;285-2859 Calle 47;Palmira;Valle del Cauca;763531;3.5420850000;-76.2968640000;0.031000000;
7036072;Diego Fernando Coral Calero;1121-11169 Calle 70;Cali;Valle del Cauca;760011;3.4488850000;-76.4877710000;0.010000000;
1624783;Diego Penagos Luna;Cl30a 11b-67, Cali, Valle Cauca, Colombia;;;;3.4486940000;-76.5143770000;0.040000000;Destinatario
7950672;Diluyentes y Solventes de Occidente;Troncal De Aguablanca;Cali;Valle del Cauca;760007;3.4128700000;-76.4795000000;0.010000000;INH Brenntag Cali
7899019;Dimarquim S.A.S.;291-2969 Carrera 15;Cali;Valle del Cauca;760010;3.4454440000;-76.5155930000;0.010000000;INH Brenntag Cali
8902396;Dioslver;199 Calle 3;Cali;Valle del Cauca;760001;3.4995510000;-76.4791930000;0.010000000;
32153499;Disfashion s a s;22b-57 22b1 12948 12959-12915 Calle 22c Calle 22c Carrera 129 Carrera 129;Bogotá;Bogotá;110911;4.6956980000;-74.1583870000;0.019000000;
12522309;Disinco Ltda;24-50 Calle 40;Barranquilla;Atlántico;080003;10.9657170000;-74.7880020000;0.019000000;Clientes
19017220;Disinco Ltda;3942 2442 24127-241 Calle 40 Calle 40 Carrera 24;Barranquilla;Atlántico;080003;10.9655940000;-74.7881110000;0.010000000;
65499048;Disinco S A S;4 - 250 4136 2-80 4137-4125 Calle 3 Transversal 4 Calle 3 Calle 3;Caucaseco;Valle del Cauca;760001;3.5003690000;-76.4726670000;0.031000000;
23656847;Disof Color S A S;#69a-05 6933 6929 692-6946 Carrera 7j Carrera 7j Carrera 7j Carrera 7j;Cali;Valle del Cauca;760011;3.4588080000;-76.4841280000;0.019000000;
8199253;Disolvan;42201 Calle 56;Copacabana;Antioquia;051040;6.3509340000;-75.5059760000;0.031000000;Remitentes
7874455;Disolventes Petroquimicos;822-82474 Calle 73;Barranquilla;Atlántico;080001;11.0100300000;-74.7903500000;0.019000000;
7360675;Disolventes Petroquimicos;821-82473 Calle 73;Barranquilla;Atlántico;080001;11.0102130000;-74.7902040000;0.019000000;
8863075;Disolventes Petroquimicos;821 Calle 73;Barranquilla;Atlántico;080001;11.0101500000;-74.7903400000;0.019000000;
1642850;Disproquin S.A.S.;Kr8, Cali, Valle Cauca, Colombia;;;;3.4508630000;-76.4750830000;0.040000000;INH Brenntag Cali
8698314;DISTRIARES ESSENCIAS S.A.S.;9a2-9a56 Calle 17;Cali;Valle del Cauca;760044;3.4485620000;-76.5259150000;0.031000000;INH Brenntag Cali
11852887;distribuciones Esplacol;Vía a Mulaló;;Valle del Cauca;760508;3.6349380000;-76.4779000000;0.019000000;
41967019;Distribuidora Avicola;Vía sin nombre;CANTALOMOTA;Valle del Cauca;763579;3.4063930000;-76.4333130000;0.031000000;
27455865;Distribuidora de Quimicos Eje Cafetero;17-47 #17-52 1742 1793-171 Carrera 12 Carrera 12 Carrera 13 Carrera 12;Santa Rosa de Cabal;Risaralda;661020;4.8697480000;-75.6207650000;0.019000000;
71509066;Distribuidora de Quimicos eje cafetero;29RSC;;Risaralda;661027;4.9459240000;-75.6176460000;0.019000000;
8051782;Distribuidora Productos del aseo;3119-31139 Diagonal 31;Cali;Valle del Cauca;760013;3.4242820000;-76.5053100000;0.010000000;
1705938;Districol;Kr27b 13-56, Yumbo, Valle Cauca, Colombia;;;;3.5233410000;-76.5010810000;0.040000000;Destinatario
19855772;distrinsumos el Faraon s a s;32 32 Calle 11A Calle 12 Calle 12;Dosquebradas;Risaralda;661002;4.8257750000;-75.6927580000;0.031000000;
9746154;Distrinsumos Faraon;Calle 12;Dosquebradas;Risaralda;660001;4.8259940000;-75.6928200000;0.010000000;
1976989;Distripiscinas S.A.S.;732-73100 Autosur;Cali;Valle del Cauca;;3.3912950000;-76.5447000000;0.080000000;INH Brenntag Cali
8698315;DISTRIQUIM S.A.S.;22-2342 Calle 3;Cali;Valle del Cauca;760001;3.4996500000;-76.4785770000;0.031000000;INH Brenntag Cali
10394251;Domicilio Jhon Ramirez;4B 4b-57 4b67 4d99-4d1 Carrera 59 Carrera 59 Carrera 59 Carrera 59;Bogotá;Bogotá;111611;4.6236420000;-74.1187220000;0.014000000;
10434567;Domicilio Victor Orjuela;Unnamed Road;San Isidro;Valle del Cauca;763537;3.4629450000;-76.3376300000;0.026000000;
1049177;Dorfan s.a;Cl18 69b-73, Bogota, Cundinamarca;;;;4.6480580000;-74.1227920000;0.040000000;Destinatario
1960873;Dotaciones Quimicas EM LTDA;26A2-26A100 Calle 42;Tuluá;Valle del Cauca;;4.0688090000;-76.1975630000;0.080000000;INH Brenntag Cali
1984734;Dow B/quilla;1 I-90;Barranquilla;Atlántico;;10.9519800000;-74.7608820000;0.048000000;
869067;Dow Quimica;Kr10-31, Barranquilla, Atlantico;;;;10.9521390000;-74.7596660000;0.040000000;Remitentes
8298523;Droquimica del Valle S.A.S.;22 Oeste1-22 Oeste79 Avenida 4 Oeste;Cali;Valle del Cauca;760045;3.4509370000;-76.5641220000;0.010000000;INH Brenntag Cali
29261122;Dystar Colombia;Bodega 118 46-14 46-122 5549 Carrera 46a Calle 55 Calle 54A Calle 55 Espacio Sur;Itagüi;Antioquia;055412;6.1729100000;-75.6036200000;0.031000000;
10724445;Ecobolsas;83f Norte371 8 Norte38-8 Norte54 Calle 84 Norte Carrera 9 Norte;Cali;Valle del Cauca;760001;3.5031380000;-76.4930260000;0.010000000;
10724446;Ecobolsas Prisma;83f Norte371 8 Norte38-8 Norte54 Calle 84 Norte Carrera 9 Norte;Cali;Valle del Cauca;760001;3.5031380000;-76.4930260000;0.010000000;
7728516;Ecopetrol  planta Yumbo;Carretera Cali - Yumbo;Yumbo;Valle del Cauca;760501;3.5787700000;-76.4855400000;0.031000000;
7728522;Ecopetrol  planta Yumbo;Carretera Cali - Yumbo;Yumbo;Valle del Cauca;760501;3.5787700000;-76.4855400000;0.031000000;
1176898;Ecotechs;Kr27b 13-69, Yumbo, Valle Cauca;;;;3.5238010000;-76.5002690000;0.040000000;Destinatario
5231404;eds;La Mesa-Mosquera;;Cundinamarca;250047;4.6951180000;-74.2450280000;0.050000000;
2097835;EDS  y Parqueadero Puntacana;Unnamed Road;Cartagena de Indias;Bolívar;;10.3520640000;-75.4771140000;0.113000000;Parqueaderos
910443;EDS ( NO ES Paloma) Terpel B;Calle 25;Bello;Antio;;6.3144600000;-75.5665200000;0.024000000;EDS Acpm
1257077;EDS ACPM VARGAS;41-499 Carrera 2;La Paz;César;;10.3861220000;-73.1775550000;0.048000000;EDS Acpm
6019775;EDS Alto de Chinauta;Boqueron-Fusagasuga;Cutucumayo;Cundinamarca;252219;4.3036090000;-74.4489020000;0.031000000;EDS Acpm
11385962;EDS BANDERAS;Variante Chicoral;;Tolima;733517;4.2393240000;-74.8928960000;0.031000000;
10535177;EDS Biomax 8;Tulua - Cali;;Valle del Cauca;761047;3.7555450000;-76.4109770000;0.031000000;
10335733;EDS Biomax Santa Martha;Granada-Soacha;;Cundinamarca;252257;4.5271110000;-74.3483470000;0.031000000;
6725135;eds Bionax Quinini;Boqueron-Fusagasuga;Marsella;Cundinamarca;252219;4.2611910000;-74.5314560000;0.010000000;
6725136;eds Bionax Quinini;Boqueron-Fusagasuga;Marsella;Cundinamarca;252219;4.2611910000;-74.5314560000;0.010000000;
1766660;EDS Brio Alsacia;12BIS1-12BIS99 Carrera 71G;Bogotá;Cundinamarca;;4.6446300000;-74.1311060000;0.040000000;EDS Acpm
10434724;Eds Brio Punto Toledo Fontibon;Vía Principal Funza;Mosquera;Cundinamarca;250047;4.6981160000;-74.2033550000;0.050000000;
3605736;EDS Brio Tulua??;Buenaventura-La Paila;;Valle del Cauca;763007;4.2346600000;-76.1316870000;0.019000000;
12635332;EDS Caucasia Terpel;Caucasia-La Apartada;;Antioquia;052417;8.0046730000;-75.2411260000;0.100000000;
13599661;EDS Celeste Terpel;Variante Mamonal Gambote;;Bolívar;130009;10.2598880000;-75.4570850000;0.031000000;EDS Acpm
7755541;EDS Coexito Mobil;35255-35333 Calle 10;Yumbo;Valle del Cauca;760502;3.5018910000;-76.5205190000;0.019000000;EDS Acpm
830943;EDS Disercol;Av 25a, Jamundi, Valle Cauca;;;;3.2262600000;-76.4222500000;0.040000000;Parqueaderos
5469014;EDS Distracom El Llano Caldas;134 Sur749-134 Sur887 Carrera 45;Caldas;Antioquia;055440;6.0775430000;-75.6320450000;0.053000000;EDS Acpm
822511;EDS Ecos Dispetrol Soledad;;Soledad;Atlántico;;10.9170490000;-74.7990710000;0.024000000;EDS Acpm
7140981;EDS El Bosque Pailitas;45;Pailitas;Cesar;204001;8.9633590000;-73.6246220000;0.031000000;EDS Acpm
9305467;EDS El Cabuyal;;Candelaria;Valle del Cauca;763578;3.3471000000;-76.3555250000;0.080000000;EDS Acpm
5231406;EDS El Cortijo Mosquera;La Mesa-Mosquera;;Cundinamarca;250047;4.6954070000;-74.2444090000;0.050000000;Lavaderos
757450;EDS El Molino;Av 45a-65, Piedecuesta, Santander;;;;6.9836400000;-73.0444300000;0.040000000;EDS Acpm
13238401;eds El Mulero;Variante Mamonal Gambote;El Calvario;Bolívar;131017;10.2318000000;-75.4248310000;0.019000000;
18331509;EDS El Nogal;292 29-2 2988 29103-291 Calle 18 Calle 18 Calle 18 Calle 18;Tuluá;Valle del Cauca;763021;4.0898990000;-76.1916090000;0.031000000;
2119488;EDS El Noral ESSO parqueadero;2-86 I-25;Copacabana;Antioquia;;6.3618850000;-75.4934790000;0.048000000;Parqueaderos
12636391;EDS El Paisa;San Juan Nepomuceno-San Cayetano;;Bolívar;132017;10.0268370000;-75.0806480000;0.031000000;EDS Acpm
811302;EDS El Paraiso;;Caicedonia;Valle del Cauca;;3.5589800000;-76.4127900000;0.056000000;EDS Acpm
9236698;EDS El Parque B/quilla;Carrera 28;Soledad;Atlántico;083001;10.9314080000;-74.7840110000;0.023000000;EDS Acpm
680874;EDS El Porton;Cl10 35-23, Cali, Valle Cauca;;;;3.5013300000;-76.5212600000;0.040000000;EDS Acpm
13205626;EDS El Recreo Al Toque;Tulua-Buga;;Valle del Cauca;763038;4.0111340000;-76.2231500000;0.060000000;EDS Acpm
12458024;EDS EL RETORNO;San Alberto-San Martin;;Cesar;205078;7.7803520000;-73.4004550000;0.031000000;
767379;EDS El Tesoro Lavadero;11699 Calle 17;Bogotá;Cundinamarca;;4.6830370000;-74.1561470000;0.040000000;Lavaderos
3018776;EDS Esso Grasco;62-698 Carrera 36;Bogotá;Bogotá;111611;4.6116850000;-74.1026160000;0.031000000;
739348;EDS Esso Maderos;Av 25, Bello, Antioquia;;;;6.3452130000;-75.5238750000;0.040000000;EDS Acpm
11376810;EDS Esso Tiger M;35-249 35-147 35a206 35a265-35a211 Carretera Cali - Yumbo Carretera Cali - Yumbo Calle 15 Calle 15;Yumbo;Valle del Cauca;760502;3.5014020000;-76.5054910000;0.040000000;
19020072;eds Estambul;40-2 4129 4043 402-4080 Calle 13 Calle 13 Calle 13 Calle 13;Tuluá;Valle del Cauca;763021;4.0918800000;-76.1784900000;0.019000000;
870207;EDS Exito Sabaneta;Av 25-79 La Estrella;;;;6.1412290000;-75.6322180000;0.024000000;EDS Acpm
51940465;EDS Fatima 4 Santos;12 Calle 1b Sur Tolu - Lorica;San Antero;Córdoba;231528;9.3690030000;-75.7560540000;0.019000000;EDS Acpm
2677793;EDS Gamboa Restte;611-6155 Calle 20;Buenaventura;Valle del Cauca;764502;3.8890750000;-77.0039570000;0.031000000;Parqueaderos
13243387;eds hotel troncal del carbibe;Curumani-Bosconia;;Cesar;201027;9.9048290000;-73.8420930000;0.031000000;
702603;EDS La Alameda;Kr28 69-52, Palmira, Valle Cauca;;;;3.5557000000;-76.2913080000;0.040000000;EDS Acpm
1260609;EDS La Arboleda Bquilla;372 Calle 43;Soledad;Atlántico;;10.9287490000;-74.7848900000;0.080000000;EDS Acpm
741045;EDS La Aurora;Via Principal-52, Cartagena, Bolivar;;;;10.2672140000;-75.4670530000;0.040000000;EDS Acpm
2038927;EDS La Floresta;Cl34 15-31, Cali, Valle Cauca;;;;3.4446640000;-76.5093770000;0.040000000;EDS Acpm
1739533;EDS La Florida C/gena;74-100 Turbana;Turbaná;Bolívar;;10.2468380000;-75.4518030000;0.129000000;EDS Acpm
815033;EDS La Gota;Av 25-72, Girardota, Antioquia;;;;6.3956640000;-75.4383710000;0.040000000;EDS Acpm
1428518;EDS La Manuela hotel;5 I-50;Manizales;Caldas;;5.0592370000;-75.6082750000;0.016000000;
3567475;EDS La Mia;El Caimo-Armenia;;Quindío;630008;4.4853280000;-75.7047510000;0.031000000;
11106844;eds La Moneda;Variante Chicoral;El Vergel;Tolima;733508;4.2720480000;-74.9998220000;0.019000000;
761761;EDS La Palmirana;Cl42 34b-80, Palmira, Valle Cauca;;;;3.5383200000;-76.3060500000;0.040000000;EDS Acpm
739349;EDS La Paloma Terpel;1-99 I-25;Bello;Antió;;6.3470660000;-75.5204880000;0.016000000;EDS Acpm
2169482;EDS La Reyna;Km 7 de la vía Buga - Buenaventura, , Valle del Cauca;;;;3.8966250000;-76.3732500000;0.040000000;EDS Acpm
2242413;EDS La Sabana Villarica;Estación De Servicio Terpel Villa Rica;;Cauca;191067;3.1684750000;-76.4578040000;0.040000000;Lavaderos
839199;EDS la Torre Mosquera;Cl3, Mosquera, Cundinamarca;;;;4.7107530000;-74.2377620000;0.016000000;EDS Acpm
14596598;EDS La Vega;19125 4a21 4a2-4a38 Calle 20 Calle 20 Carrera 4;La Vega;Cundinamarca;253610;4.9989270000;-74.3409400000;0.031000000;EDS Acpm
1260611;EDS La Via 40 Bquilla;532 Vía 40;Barranquilla;Atlántico;;10.9928910000;-74.7796440000;0.048000000;EDS Acpm
7676388;eds las mercedes;Variante Mamonal Gambote;;Bolívar;130009;10.3066960000;-75.4826000000;0.031000000;
6333939;EDS Las Olas  Cgena;Variante Mamonal Gambote;;Bolívar;130013;10.3445100000;-75.4857300000;0.031000000;EDS Acpm
7821678;eds las palomas;1042-10154 Bello-Copacabana;Bello;Antioquia;051051;6.3468760000;-75.5207060000;0.019000000;
7855462;eds Las Victorias;152-15112 Carrera 33a;Palmira;Valle del Cauca;763533;3.5152070000;-76.3056720000;0.019000000;
7709780;EDS Lavadero las Americas;92-9126 Diagonal 19;Yumbo;Valle del Cauca;760502;3.5626600000;-76.4950000000;0.019000000;Lavaderos
8158595;EDS Lavadero Terpel Pumarejo;122-1290 Carrera 8;Barranquilla;Atlántico;080005;10.9489300000;-74.7709600000;0.031000000;Lavaderos
6474770;eds lavautos Orlando Rojas Rios;18B-65 Carrera 3;Jamundí;Valle del Cauca;764001;3.2668600000;-76.5319800000;0.031000000;
929108;EDS Llanos cuiva;Av 25, Santa Rosa De Osos, Antioquia;;;;6.8107140000;-75.4894980000;0.040000000;EDS Acpm
12457465;EDS LOS ALPES;San Martin-Aguachica;;Cesar;205018;8.1977040000;-73.6112860000;0.031000000;
2042225;EDS Los Angeles Zamora;33 Carrera 20E;Bello;Antioquia;;6.3091120000;-75.5559160000;0.048000000;Parqueaderos
5487833;EDS Los Pinos Mobil;21;;Cundinamarca;250017;4.7596740000;-74.1563720000;0.031000000;EDS Acpm
6553045;EDS Los Trapiches;La Don Juana-Cucuta;;Norte de Santander;541030;7.8725800000;-72.4772450000;0.019000000;
1218891;EDS Macarena;Av Ciudad De Cali 38ds, Bogota, Cundinamarca;;;;4.6332590000;-74.1643750000;0.040000000;EDS Acpm
2352529;EDS Maraven;213-2103 Carrera 40;Aguachica;Cesar;205010;8.3133150000;-73.5964380000;0.048000000;
5224569;EDS Marcella Texaco;33519-33605 Calle 84 Sur;;Antioquia;055468;6.1427980000;-75.6318390000;0.031000000;EDS Acpm
2329337;EDS Marvella;41-439 Carrera 40;Aguachica;Cesar;205010;8.3124040000;-73.5965780000;0.048000000;EDS Acpm
13247510;EDS Melany Terpel ALvarez 1;La Dorada-Puerto Libre;;Cundinamarca;253487;5.7542500000;-74.6306600000;0.031000000;EDS Acpm
10434681;Eds Mobil Calarcá;152 Carrera 15 Calle 41;Calarcá;Quindío;632001;4.5292730000;-75.6339640000;0.031000000;
10434697;Eds Mobil Calarcá;152 Carrera 15 Calle 41;Calarcá;Quindío;632001;4.5292730000;-75.6339640000;0.031000000;
38113427;EDS Mobil Panorama;3690 3671 36-50 36227 36239-36211 Carrera 36 Carrera 36 Tulua - Cali Calle 15 Calle 15;Yumbo;Valle del Cauca;760502;3.4979440000;-76.5066650000;0.031000000;
655427;EDS Opes ACOPI Ltda;Calle 10;Yumbo;Valle del Cauca;760502;3.5080350000;-76.5206470000;0.040000000;EDS Acpm
6923419;EDS Opes Terminal Logistico;Carretera Cali - Yumbo;Yumbo;Valle del Cauca;760502;3.5413430000;-76.4908220000;0.069000000;EDS Acpm
2732543;EDS Palermo La Lizama;Barrancabermeja-Bucaramanga;;Santander;687038;7.1239740000;-73.5880440000;0.069000000;EDS Acpm
1808476;EDS ParK Norte Zeus;53100 Carrera 45;Copacabana;Antioquia;;6.3511900000;-75.5051900000;0.048000000;EDS Acpm
6499694;EDS PETROMIL DOÑA CLEME;Variante Mamonal Gambote;Bolívar;Bolívar;130009;10.2672750000;-75.4669620000;0.031000000;
6499706;EDS PETROMIL DOÑA CLEME;Variante Mamonal Gambote;Bolívar;Bolívar;130009;10.2670540000;-75.4672840000;0.050000000;
755988;EDS Petromil El Diamante;Tr48-40, Barrancabermeja, Santander;;;;7.0604500000;-73.7949700000;0.040000000;EDS Acpm
1458406;EDS Petromil Parqueadero;2-100 I-40;Buenaventura;Valle del Cauca;;3.8817530000;-76.9517970000;0.048000000;
1779427;EDS Petromil San Rafael B/quilla Lavadero;302-30100 Carrera 20;Barranquilla;Atlántico;;10.9567370000;-74.7863110000;0.048000000;
71045131;eds primax Biomax los paracos;Candelaria-Puerto Tejada;;Valle del Cauca;763578;3.3372950000;-76.3513050000;0.031000000;
51062754;EDS Primax la 16;4-64 15-78 2213 Carrera 4ª Tulua - Cali Carrera 4 Calle 16;Yumbo;Valle del Cauca;760501;3.5819370000;-76.4855810000;0.031000000;
58811961;eds primax la 70;20- 06 528 538 530-548 Calle 70 Calle 70 Calle 70 Calle 70;Cali;Valle del Cauca;760004;3.4669440000;-76.4855260000;0.019000000;
638047;EDS Primax San Pedro;;San Pedro;Valle del Cauca;763030;3.9934160000;-76.2325350000;0.080000000;EDS Acpm
2321365;EDS Quintanas;61-655 Calle 71a Sur;Bogotá;Bogotá;110511;4.5204490000;-74.1233930000;0.048000000;
23598363;EDS S Esteban Petromil;1 25 Andalucía-Tuluá Andalucía-Tuluá;;Valle del Cauca;763017;4.1479210000;-76.1789150000;0.031000000;
822544;EDS san Esteban Distracol;Av 25, Monteria, Cordoba;;;;8.3552930000;-75.5580660000;0.032000000;EDS Acpm
6111468;EDS San JoseE;14b136-14b270 Carrera 20h;Arroyo Hondo;Valle del Cauca;760502;3.5480100000;-76.4914500000;0.040000000;Lavaderos
8189734;EDS San Pedro Oiente Florida Blanca;45A;La Parcela;Santander;681017;7.0362600000;-73.0716000000;0.031000000;EDS Acpm
13136947;EDS San Rafael;San Juan Nepomuceno-San Cayetano;;Bolívar;132017;9.9698300000;-75.0812700000;0.031000000;
638719;EDS Santander;Kr9 27-64, Cali, Valle Cauca;;;;3.4514200000;-76.5169700000;0.040000000;Lavaderos
867725;EDS Serviberna Lavadero Pacho;Universidad Nacional Sede Palmira;Palmira;Valle del Cauca;763533;3.5103960000;-76.3066010000;0.040000000;Lavaderos
31912934;EDS Servic Menga;38-66 Calle 10;Yumbo;Valle del Cauca;760001;3.4961460000;-76.5227290000;0.040000000;EDS Acpm
6783292;eds Servicar;27a2-27a92 Calle 47;Tuluá;Valle del Cauca;763022;4.0654400000;-76.1968200000;0.010000000;
6783293;eds Servicar;27a2-27a92 Calle 47;Tuluá;Valle del Cauca;763022;4.0654400000;-76.1968200000;0.010000000;
16802809;EDS Sierra terpel;Curomani-Bosconia;;Cesar;203047;9.3733420000;-73.5340250000;0.031000000;EDS Acpm
1767183;EDS Soacha;Kr4s 8-65, Soacha, Cundinamarca;;;;4.5664270000;-74.2281340000;0.040000000;EDS Acpm
1306710;EDS Teka;112A2-112A100 Calle 15F;Bogotá;Cundinamarca;;4.6790380000;-74.1550720000;0.048000000;Lavaderos
739301;EDS Terpel Ancon Sur;Cl95-86, La Estrella, Antioquia;;;;6.1391070000;-75.6324000000;0.040000000;EDS Acpm
11529149;EDS Terpel Andalucia;138 Andalucía Tulua - Cartago;;Valle del Cauca;763017;4.1619950000;-76.1753310000;0.031000000;EDS Acpm
2326980;EDS Terpel Ave Boyaca;3i2-3i98 Calle 71 Sur;Bogotá;Bogotá;110511;4.5242940000;-74.1250450000;0.048000000;EDS Acpm
10434860;Eds Terpel Candelaria;Palmira-Candelaria;Chundular;Valle del Cauca;763577;3.4423700000;-76.3431390000;0.060000000;
9287269;eds terpel Chinauta;Boqueron-Fusagasuga;Marsella;Cundinamarca;252219;4.3033200000;-74.4490200000;0.019000000;
7721088;eds terpel de la montaña;721-72151 Carrera 42;Itagüi;Antioquia;055411;6.1798760000;-75.5923210000;0.019000000;
8198051;eds terpel de la montaña;721-72151 Carrera 42;Itagüi;Antioquia;055411;6.1798380000;-75.5923090000;0.019000000;
8198052;eds terpel de la montaña;721-72151 Carrera 42;Itagüi;Antioquia;055411;6.1798380000;-75.5923090000;0.019000000;
10434572;Eds terpel El Bolo Comaju;Palmira-Candelaria;;Valle del Cauca;763577;3.4492030000;-76.3396400000;0.069000000;
9469539;eds terpel El Corzo;Facatativá-Madrid;;Cundinamarca;253057;4.7777100000;-74.3207400000;0.019000000;
10441818;Eds Terpel Jennifer Rionegrito o Puerto Libre;La Dorada-Puerto Libre;;Cundinamarca;253487;5.7546840000;-74.6289590000;0.090000000;
10361047;Eds Terpel La Gareta;Te Del Aeropuerto-Belen;;Antioquia;054057;6.3023710000;-75.4569360000;0.031000000;
10361122;Eds Terpel La Gareta;Te Del Aeropuerto-Belen;;Antioquia;054057;6.3023710000;-75.4569360000;0.031000000;
10434702;Eds Terpel La Martinica;20520 Carrera 23 Sur Vía a Ibague;Ibagué;Tolima;730010;4.4196440000;-75.2504160000;0.060000000;
10434747;Eds Terpel Molino I y II;Variante Chicoral;;Tolima;733517;4.2543130000;-74.8469610000;0.121000000;
739347;EDS Terpel Navarra;Av 25-61, Bello, Antioquia;;;;6.3444560000;-75.5318650000;0.040000000;EDS Acpm
1445222;EDS Terpel Paloblanco;241-2499 Calle 13;Buga;Valle del Cauca;;3.9095940000;-76.3070490000;0.048000000;EDS Acpm
23597060;EDS Terpel San Pedro;;San Pedro;Valle del Cauca;763038;3.9874370000;-76.2364890000;0.080000000;EDS Acpm
9847386;EDS Terpel Sopo;460 457 Diagonal 4 Diagonal 4;;Cundinamarca;251007;4.9201800000;-73.9484300000;0.031000000;Lavaderos
10140892;Eds Terpel Sopo Aposentos Caricada;Bogotá - Tunja;;Cundinamarca;251008;4.9378300000;-73.9776560000;0.031000000;
10140893;Eds Terpel Sopo Aposentos Caricada;Bogotá - Tunja;;Cundinamarca;251008;4.9378300000;-73.9776560000;0.031000000;
10140894;Eds Terpel Sopo Aposentos Caricada;Bogotá - Tunja;;Cundinamarca;251008;4.9378300000;-73.9776560000;0.031000000;
1433063;EDS Terpel Tulua;2-100 Carrera 40;Tuluá;Valle del Cauca;;4.0603460000;-76.1989240000;0.048000000;EDS Acpm
10270599;eds texaco El Darien;Vía Villavicencio - Acacías;Villavicencio;Meta;500005;4.0884200000;-73.6698700000;0.010000000;
2040844;EDS Texaco Trapiche;2 I-25;Girardota;Antioquia;;6.4000810000;-75.4315770000;0.048000000;Parqueaderos
6496758;EDS Texacol Palmira;2865 Calle 42 Estación De Servicio Texaco Número 13;Palmira;Valle del Cauca;763531;3.5376320000;-76.2984900000;0.031000000;Lavaderos
2119387;EDS Tolu;Av 25-29, Copacabana, Antioquia, Colombia;;;;6.3621360000;-75.4937340000;0.040000000;EDS Acpm
1727757;eds Total gas;Glorieta-60, Buga, Valle Cauca;;;;3.8946810000;-76.3696030000;0.040000000;Destinatario
1755435;EDS Total Gas Buga;Av 25n-43, Buga, Valle Cauca;;;;3.9088120000;-76.3064140000;0.040000000;EDS Acpm
1104872;EDS TotalGas 1/2 Canoa;Glorieta-70, Buga, Valle Cauca;;;;3.8939100000;-76.3693200000;0.016000000;EDS Acpm
13179733;eds Valle;29-73 2968 Calle 18 Calle 18;Tuluá;Valle del Cauca;763021;4.0900770000;-76.1916480000;0.010000000;
2103827;EDS VillaGorgona parqueadero;25-99 Florida;Candelaria;Valle del Cauca;;3.4022730000;-76.3941380000;0.048000000;Parqueaderos
734524;EDS y Bascula El Venado;#5069 Carrera 43;Itagüi;Antioquia;055412;6.1683840000;-75.6070960000;0.040000000;Basculas
13247505;EDS Yenifer Terpel Alvarez 2;Correg Pto. Libre;;Cundinamarca;253487;5.7547720000;-74.6295580000;0.080000000;EDS Acpm
52930868;EDS Yired Pradera;Pradera - Palmira;Pradera;Valle del Cauca;763557;3.4280870000;-76.2467800000;0.031000000;
10025443;Eds, Lavadero Terpel la Circunvalar;5-10 612 Vereda Paso de la Bolsa Carrera 6 Carrera 5;Jamundí;Valle del Cauca;764001;3.2569290000;-76.5422880000;0.031000000;
9939539;Eds, lavadero y Parqueadero ZEUS;24481 62 Calle 7;Girardota;Antioquia;051030;6.3807470000;-75.4525250000;0.069000000;
3241531;EDSTerpel Villarica;I-25A, Villa Rica, Cauca, Colombia;;;;3.1682480000;-76.4581140000;0.040000000;EDS Acpm
6327406;Efusion Color;3a2-3a68 Carrera 39;Cali;Valle del Cauca;760043;3.4248390000;-76.5489890000;0.031000000;
18707712;EjercolAcopi;#36-224 36a4 36A-04 36270 36126-36270 Calle 10 Calle 10 Calle 10 Calle 10 Calle 10;Yumbo;Valle del Cauca;760502;3.4983350000;-76.5216320000;0.031000000;
2010581;EKA Corp S.A.;11-1105 Calle 46a;Cali;Valle del Cauca;760003;3.4719620000;-76.5077660000;0.080000000;INH Brenntag Cali
28080509;El 41 - La Felisa;Manizales-La Felisa;;Caldas;170007;5.1536880000;-75.6665090000;0.299000000;
15524638;EL NARANJO;Cordoba - Loboguerrero;;Valle del Cauca;760528;3.7820100000;-76.7212700000;0.501000000;
15528508;EL NARANJO;Cordoba - Loboguerrero;;Valle del Cauca;760528;3.7814750000;-76.7212020000;0.501000000;
20752825;electricos Ney;11439 14113 11428-11456 Carrera 20d Carrera 20e Carrera 20d;Yumbo;Valle del Cauca;760502;3.5512390000;-76.4907380000;0.019000000;
20752830;electricos Ney;11439 14113 11428-11456 Carrera 20d Carrera 20e Carrera 20d;Yumbo;Valle del Cauca;760502;3.5512390000;-76.4907380000;0.019000000;
25251741;Elizabeth Benitez Giraldo;16-22 Carrera 11 Carrera 11;La Unión;Valle del Cauca;761540;4.5351270000;-76.0981540000;0.019000000;
6668874;Elkin Fernando Orrego Zuluaga;Vía Pital de Combia;Pereira;Risaralda;660007;4.8285570000;-75.7261300000;0.010000000;
748105;Emcali;Cl59-51, Cali, Valle Cauca;;;;3.4473900000;-76.4933400000;0.040000000;Destinatario
22052510;Emcubadora santander;Villa Rica-Caloto;;Cauca;191067;3.1301510000;-76.4426670000;0.019000000;
22018159;Emdesol S A S;3684 39-43 36114 3610-36186 Calle 40 Calle 40 Los Estudiantes Calle 40;Barranquilla;Atlántico;080003;10.9778500000;-74.7828600000;0.019000000;
6505077;Empaques Carvajal Flexa;32276-32526 Carretera Cali - Yumbo;Yumbo;Valle del Cauca;760502;3.5092100000;-76.5047800000;0.010000000;
24213660;Empaques Flexa;32343 32276-32526 Tulua - Cali Tulua - Cali;Yumbo;Valle del Cauca;760502;3.5088630000;-76.5048690000;0.031000000;
1746181;Empaques Flexa Descargue;Entrada Ala Cl15-61, Yumbo, Valle Cauca;;;;3.5113870000;-76.5034490000;0.040000000;INH Brenntag Cali
1990207;Empaques Flexibles SA;27A15-27A63 Calle 15;Yumbo;Valle del Cauca;;3.5233290000;-76.4983250000;0.080000000;INH Brenntag Cali
2402722;EMPAQUES INDUSTRIALES;0 Sur184-0 Sur478 Transversal 1;;Valle del Cauca;760006;3.4840690000;-76.4790420000;0.031000000;INH Brenntag Cali
7958958;Empaques Industriales de Colombia S.A.S.;0 Sur184-0 Sur478 Transversal 1;;Valle del Cauca;760006;3.4838250000;-76.4797320000;0.031000000;INH Brenntag Cali
6672578;Empaques plasticos de Occidente;132-13120 Calle 11;Cali;Valle del Cauca;760044;3.4441420000;-76.5307570000;0.010000000;
6641393;Empaques Plasticos s a;7-94 Calle 9;Dosquebradas;Risaralda;661002;4.8241030000;-75.6894670000;0.010000000;
650614;Empopasto;Cl23 16-40, Pasto, Narino;;;;1.2089000000;-77.2690100000;0.040000000;Clientes
8698319;EMPRENDIMIENTOS AMBIENTALES S.A.S.;2 Norte1-2 Norte129 Calle 53 Norte;Cali;Valle del Cauca;760050;3.4825640000;-76.5088710000;0.031000000;INH Brenntag Cali
11295615;Empresa de Licores de Cundinmarca;Unnamed Road;;Cundinamarca;250017;4.7552400000;-74.1466800000;0.031000000;
702215;Engrasadero PuenteTierra;Av 40-5, Restrepo, Valle Cauca;;;;3.8750320000;-76.4600180000;0.040000000;Montallantas
1669716;Enlace Quimico;Cl41 6-62, Cali, Valle Cauca, Colombia;;;;3.4594730000;-76.5085170000;0.040000000;INH Brenntag Cali
11405535;Entrada Via La Calera;8955 8968 4b2-4b58 Calle 90 Transversal 4a Transversal 5;Bogotá;Bogotá;110221;4.6697660000;-74.0431460000;0.031000000;
8451088;Equipos Tecnicos;1524-15288 Carrera 38;Cali;Valle del Cauca;760050;3.4920230000;-76.5081740000;0.019000000;
8698320;ESPECIALIDADES DIAGNOSTICAS IHR LTDA;38A-08 Calle 8;Cali;Valle del Cauca;760042;3.4207220000;-76.5403940000;0.031000000;INH Brenntag Cali
1977145;Espejos S.A.;2-100 31 - Ginebra;Palmira;Valle del Cauca;;3.5514530000;-76.2456680000;0.080000000;INH Brenntag Cali
7517500;Espumas Cafeteras;929-9135 Calle 7;Cartago;Valle del Cauca;762021;4.7443650000;-75.9081370000;0.031000000;
6503177;Espumas Cafeteras;929-9135 Calle 7;Cartago;Valle del Cauca;762021;4.7443280000;-75.9081410000;0.010000000;
9179827;Espumas Fabriconfort;102 Carrera 30;Yumbo;Valle del Cauca;760502;3.5155800000;-76.5148220000;0.010000000;
2438715;ESPUMAS Y COLCHONES DE OCCIDENTE S.A.S.;8b2-8b234 Calle 94;Cali;Valle del Cauca;760021;3.4473710000;-76.4698800000;0.031000000;INH Brenntag Cali
8519024;espumas y colchones del Pacifico;8b2-8b234 Calle 94;Juanchito Guali;Valle del Cauca;760021;3.4473310000;-76.4699510000;0.019000000;INH Brenntag Cali
1927430;ESSENSALE;62-6100 Calle 41;Cali;Valle del Cauca;;3.4595230000;-76.5086550000;0.080000000;INH Brenntag Cali
1483343;estacion El Porton;Cl10 35-23, Cali, Valle Cauca;;;;3.5013360000;-76.5212390000;0.040000000;Lavaderos
58677158;estacion Las Palmeras;31-71 31-71 41-47 4122 412-4174 Carrera 32 Carrera 32 Carrera 32 Calle 42 Calle 42;Palmira;Valle del Cauca;763531;3.5377730000;-76.3008890000;0.019000000;
1453080;estacion lav El Paraiso de Rozo;Via Principal-23, Palmira, Valle Cauca;;;;3.5589900000;-76.4128300000;0.040000000;Lavaderos
1718494;estacion terpel de Paloblanco;Av 25s-40, Buga, Valle Cauca, Colombia;;;;3.9110520000;-76.3049750000;0.040000000;Lavaderos
6287419;estadero Los Lagos;Santa Barbara-Caldas;;Antioquia;055448;6.0575700000;-75.6299400000;0.010000000;
864393;Estadero los Tubos;Av 40, Buenaventura, Valle Cauca;;;;3.8436800000;-76.7932800000;0.040000000;Restaurante
6299771;Estrumetal;Unnamed Road;Las Palmeras;Valle del Cauca;763537;3.5115920000;-76.4129400000;0.010000000;INH Brenntag Cali
8439548;Etanoles del Magdalena;Cali - Candelaria;;Valle del Cauca;760021;3.4410730000;-76.4614330000;0.019000000;
23860176;Eterna S A;#13-52 13-52 13-50 1348 136-1350 Avenida Carrera 68 Avenida Carrera 68 Avenida Carrera 68 Avenida Ca;Bogotá;Bogotá;110931;4.6384460000;-74.1168300000;0.019000000;
8508651;Eternit;Carton de Colombia;Yumbo;Valle del Cauca;760502;3.5626130000;-76.4840200000;0.031000000;INH Brenntag Cali
16335263;EURO BELLEZA;10-17 10285 Carrera 36A Carrera 36A Carrera 36A;Yumbo;Valle del Cauca;760502;3.4978080000;-76.5189280000;0.019000000;
7782893;Expreso Andino;;Yumbo;Valle del Cauca;;3.5389500000;-76.4905300000;0.031000000;
1727705;Expression Perfumess S.A.S.;Kr9a 16-32, Cali, Valle Cauca;;;;3.4486950000;-76.5268360000;0.040000000;INH Brenntag Cali
7420278;Fabian Ramirez Cuartas;30A-100 Calle 53;Cali;Valle del Cauca;760023;3.4113900000;-76.4946120000;0.010000000;
2413121;FABIO ORREGO ALZATE;101-10105 Calle 11;Cali;Valle del Cauca;760044;3.4471600000;-76.5314460000;0.031000000;
24325416;Fabrica Colchones la Nueva Generacion;Vía sin nombre;Galpones San José;Valle del Cauca;763037;3.9923970000;-76.2398930000;0.050000000;
39649900;Fabrica de Licores de Antioquia;42 - 130 422 42128 422-42392 Calle 89 Calle 89 Calle 89 Calle 89;Itagüi;Antioquia;055411;6.1944320000;-75.5838290000;0.031000000;
6129389;facacativa;Alban-Facatativa;;Cundinamarca;253057;4.8221290000;-74.3715310000;0.019000000;
24325977;Facosol S A S;28a-83 28a78 28a44-28a182 1190 Carrera 29b Calle 11 Calle 11 Calle 11;Yumbo;Valle del Cauca;760502;3.5195450000;-76.5118510000;0.019000000;
22903789;Facosol S A S;28a76 28a44-28a182 #11-80 Carrera 29b Calle 11 Calle 11;Yumbo;Valle del Cauca;760502;3.5195000000;-76.5116700000;0.019000000;
22903790;Facosol S A S;28a76 28a44-28a182 #11-80 Carrera 29b Calle 11 Calle 11;Yumbo;Valle del Cauca;760502;3.5195000000;-76.5116700000;0.019000000;
1260685;Famar;19B99 Carrera 44;Ciénaga;Magdalena;;11.0045380000;-74.2218090000;0.080000000;Remitentes
2384666;Fandiño Beltran Carlos Alberto;Calle 30;Armenia;Quindío;630002;4.5283480000;-75.7119730000;0.031000000;INH Brenntag Cali
1936599;Fed. Ncnal. Cafeteros;I-25;Manizales;Caldas;;5.0185850000;-75.5512910000;0.080000000;INH Brenntag Cali
2147884;Fede. Nacional Cafeteros Chinchina;161-1643 Carrera 5;Chinchiná;Caldas;;4.9885610000;-75.6087640000;0.080000000;
6253487;Federacion Nacional de Cafeteros Chinchina;1748 Carrera 7;Chinchiná;Caldas;176020;4.9875000000;-75.6105100000;0.010000000;
2366375;FENALCOL;10352-10460 Carrera 32;Yumbo;Valle del Cauca;760502;3.5105960000;-76.5151490000;0.031000000;
8707338;FENOCOL S.A.S.;10288-10350 10218 Carrera 32 Carrera 32;Yumbo;Valle del Cauca;760502;3.5104280000;-76.5161240000;0.031000000;INH Brenntag Cali
12706761;Fepromel S A S;Unnamed Road;;Cundinamarca;250017;4.7543360000;-74.1458960000;0.019000000;
6406965;Ferplasticos S.A.S.;131-13287 Carrera 39;Cali;Valle del Cauca;760050;3.4930640000;-76.5131310000;0.010000000;INH Brenntag Cali
11864124;FerroColombia s a;24145 154 24397-24209 Calle 7 Carrera 23 Calle 7;Girardota;Antioquia;051030;6.3825400000;-75.4517000000;0.031000000;
66168839;Fertilizando E U;31 31 9 9 Variante Sur Variante Sur Timbío-Popayán Variante Sur Variante Sur;Popayán;Cauca;190018;2.4333270000;-76.6205230000;0.019000000;
10365029;Fertilizando E.U;9-39 3514 Carrera 17 Transversal 9 Norte Calle 4 Norte;Popayán;Cauca;190002;2.4503050000;-76.6103690000;0.010000000;INH Brenntag Cali
800265;Fertilizantes Colombianos;Dg65 45a-45, Barrancabermeja, Santander;;;;7.0745900000;-73.8345200000;0.040000000;Remitentes
11129677;fgf;4084 402-4074 Calle 6 Sur Calle 6 Sur;Buenaventura;Valle del Cauca;764504;3.8659110000;-77.0310510000;0.031000000;
2150713;Finca s a;Carrera 20;;;;3.9104440000;-76.3039860000;0.040000000;Destinatario
1261626;Finquita ?G Muñoz;1-2 I-40;Dagua;Valle del Cauca;;3.7853370000;-76.6447960000;0.048000000;Puntos de Control
16806382;FLEISCHMANN;34-2 Calle 34;Palmira;Valle del Cauca;763531;3.5326290000;-76.3044450000;0.060000000;INH Brenntag Cali
68751963;Fleischmann Foods;1183 34-105 # 35-48 34141 34205-341 Carrera 34 Carrera 34 Carrera 34 Calle 36 Carrera 34;Palmira;Valle del Cauca;763531;3.5332210000;-76.3041650000;0.031000000;
10949307;FLEXCO;Variante Turín-La Popa;Dosquebradas;Risaralda;661002;4.8259090000;-75.7021430000;0.080000000;
2550350;FLEXCO SA;2772 Carrera 29a;Dosquebradas;Risaralda;661008;4.8246270000;-75.6341170000;0.031000000;
2010945;FLEXCOL Giraldo R Julia C;7318-73100 Del Río;Manizales;Caldas;;5.0503500000;-75.4810930000;0.048000000;
6172358;Flexo Cali;46a3-46a139 Carrera 1 B 1a96 Calle 47;Cali;Valle del Cauca;760003;3.4717430000;-76.5062330000;0.019000000;
670848;Flexo Spring Fontibon;Cl22-74, Bogota, Cundinamarca;;;;4.6945600000;-74.1603700000;0.040000000;Destinatario
1211140;Flexo Spring Pte Aranda;Kr65 14-25, Bogota, Cundinamarca;;;;4.6356370000;-74.1137030000;0.040000000;Destinatario
3986199;Flexo Spring puente Aranda;Cl14 63-24, Bogota, Cundinamarca, Colombia;;;;4.6345690000;-74.1136480000;0.040000000;Destinatario
1977207;Flexoesprin Planta 4 Bascula;221-2299 Carrera 120;Bogotá;Bogotá, D.C.;;4.6898090000;-74.1531020000;0.048000000;Basculas
8711482;FLEXOFILMS S.A.S.;1-3 Calle 40;Cali;Valle del Cauca;760003;3.4643700000;-76.5101560000;0.031000000;INH Brenntag Cali
639162;Flint Ink Col.;23571 Autopista Norte;Bogotá;Bogotá;111176;4.8148970000;-74.0372440000;0.121000000;Destinatario
1629197;Fogel Andina S.A.S.;Cl15-39, Yumbo, Valle Cauca, Colombia;;;;3.5099380000;-76.5032050000;0.040000000;INH Brenntag Cali
1978959;Fragancias & Sabores S.A.;111-1199 Carrera 36;Yumbo;Valle del Cauca;;3.5007880000;-76.5189940000;0.080000000;INH Brenntag Cali
7222496;Fresh-er s a s;1-70 Calle 35;Cali;Valle del Cauca;760003;3.4635890000;-76.5140180000;0.010000000;
899989;Frigorificos de la Costa;Cl53 44-38, Barranquilla, Atlantico;;;;10.9863290000;-74.7907390000;0.040000000;Destinatario
1731532;Friomix del Cauca;Av 25a, Jamundi, Valle Cauca;;;;3.2050130000;-76.4205350000;0.040000000;Destinatario
1792725;Frusabor;11A2-11A100 Calle 41;Cali;Valle del Cauca;;3.4501920000;-76.5062720000;0.048000000;INH Brenntag Cali
1932971;FRUTAROMA;151-1599 Carrera 28;Yumbo;Valle del Cauca;;3.5227000000;-76.4966160000;0.080000000;INH Brenntag Cali
2500875;FRUTAS TROPICALES;Unnamed Road;;Valle del Cauca;761548;4.5547560000;-76.0435190000;0.031000000;
8257691;Frutihelen;132-13288 Carrera 39;Cali;Valle del Cauca;760050;3.4928860000;-76.5136030000;0.010000000;INH Brenntag Cali
7470383;Fuller Pinto s a;12a65-12a83 Carrera 68b Bis;Bogotá;Bogotá;110831;4.6374770000;-74.1213280000;0.019000000;
12905729;Fundacion para Fotalecimiento Ind y Tecnologia Agr;Via a La Fontana;Dapa;Valle del Cauca;760507;3.5673450000;-76.5538200000;0.010000000;
8711798;FUNDICIONES INDUSTRIALES ORTIZ S.A.S.;;Cali;Valle del Cauca;760011;3.4621460000;-76.4865800000;0.031000000;INH Brenntag Cali
71280372;Fundiciones Orozco;33b-76 33b85 Calle 23 Calle 22 Calle 22;Cali;Valle del Cauca;763579;3.4130250000;-76.4538270000;0.010000000;
1985046;Fundiciones Universo S.A.;321-3275 Calle 11a;Yumbo;Valle del Cauca;760502;3.5102170000;-76.5130850000;0.080000000;INH Brenntag Cali
36856534;Fungicol Y Cia;Santa Barbara-Caldas;;Antioquia;055447;6.0249930000;-75.6204390000;0.031000000;
2362438;FUSION COLORS;3a2-3a68 Carrera 39;Cali;Valle del Cauca;760043;3.4247840000;-76.5489200000;0.048000000;INH Brenntag Cali
1909260;G & M QUIMICA Ltda;10A2-10A100 Carrera 36A;Cali;Valle Del Cauca;;3.4225360000;-76.5333630000;0.113000000;INH Brenntag Cali
15668623;GAMAGRO;22a5 22a75 22a2-22a140 Calle 13 Calle 13 Calle 13;Vuelta de La Hervadura;Valle del Cauca;760502;3.5418780000;-76.4964240000;0.031000000;
1631730;Gamaquin S.A.S.;Cl14 18-36, Cali, Valle Cauca, Colombia;;;;3.4403990000;-76.5265050000;0.040000000;INH Brenntag Cali
6557974;Gaseosas de Cordoba planta Pasto;25;Pasto;Nariño;520002;1.2346300000;-77.2989700000;0.010000000;
755490;Gaseosas Hipinto s a;Kr4-48, Piedecuesta, Santander;;;;6.9930100000;-73.0757300000;0.040000000;Clientes
1256843;Gaseosas Hipinto sa. Valledupar;Kr6b 39-62, Valledupar, Cesar;;;;10.4490660000;-73.2413840000;0.040000000;Destinatario
8485505;Gaseosas Posada Tobon;13106-13120 Carrera 25a;Yumbo;Valle del Cauca;760502;3.5344590000;-76.4994140000;0.031000000;
1211069;Gaseosas Postobon Yumbo;Cl13 25-58, Yumbo, Valle Cauca;;;;3.5343030000;-76.4991080000;0.040000000;Clientes
8613324;GCALL;Unnamed Road;;Valle del Cauca;763579;3.3713380000;-76.4231540000;0.031000000;
11133716;GCP ARGOS PUERTO NARE;Unnamed Road;;Antioquia;053437;6.2195010000;-74.5734160000;0.031000000;
11133657;GCP ARGOS YUMBO;12132 125 Carretera Cali - Yumbo Carrera 19 Carrera 19;Yumbo;Valle del Cauca;760502;3.5637040000;-76.4885680000;0.031000000;
11134682;GCP BODEGA ACOPI cra 23#12-205;#12-99 1219 124-126 Calle 12 Calle 12 Carrera 23;Yumbo;Valle del Cauca;760502;3.5422710000;-76.4995720000;0.031000000;
11133749;GCP CEMENTOS SAN MARCOS;2408 23 Vía Panorama;Yotoco;Valle del Cauca;761047;3.8600430000;-76.3774550000;0.040000000;
11134236;GCP HOLCIM PALMIRA;0175 02-0240 Calle 1 Transversal 1;Cali;Valle del Cauca;760001;3.4947580000;-76.4807570000;0.031000000;
1905534;Genfar S.A.;;Villa Rica;Cauca;;3.1262350000;-76.4616030000;0.322000000;INH Brenntag Cali
1905775;Geraldo G Santiago;62-6100 Carrera 19;Popayán;Cauca;;2.4440090000;-76.6170910000;0.048000000;INH Brenntag Cali
2079562;Gilpa Impresores Bogota;942-94100 Calle 24C;Bogotá;Bogotá, D.C.;;4.6762940000;-74.1260270000;0.048000000;Destinatario
1982800;Gilpa Impresores Pto Tejada;1 I-25A;Guachené;Cauca;;3.2045690000;-76.4171110000;0.080000000;INH Brenntag Cali
2040685;Global Park;11099 Calle 17CBIS;Bogotá;Bogotá, D.C.;;4.6800430000;-74.1506960000;0.080000000;Parqueaderos
68063991;Globan Surfachem S A S;Vía Sin Nombre;Ingenio Bengala;Cauca;191507;3.2578350000;-76.4279530000;0.019000000;
4124658;Gloria de Colombia;Simijaca-49, Simijaca, Cundinamarca, Colombia;;;;5.5123290000;-73.8418020000;0.040000000;Destinatario
1364033;glorieta Buga;Conector Panorama;Buga;Valle del Cauca;;3.8935890000;-76.3121940000;0.048000000;
6400645;Godoy Sabala Viviana;271-27105 Carrera 28;Palmira;Valle del Cauca;763533;3.5248670000;-76.2992730000;0.010000000;INH Brenntag Cali
65659785;Golosinas Trululu;170001 Letras-Manizales Vía a Maltería;Manizales;Caldas;170001;5.0348410000;-75.4288920000;0.090000000;
8713591;GOLOSINAS TRULULU S.A.;Vía Panamericana;Manizales;Caldas;170003;5.0361470000;-75.4289910000;0.031000000;INH Brenntag Cali
2362357;GOMEZ TELLEZ AURA DOLLY;La Tebaida-Armenia;;Quindío;630007;4.5060830000;-75.7114600000;0.048000000;
2364798;GONGORA LEON ALEXANDRA;522-52154 Calle 1;Cali;Valle del Cauca;760040;3.4152320000;-76.5551050000;0.031000000;
1666426;Gonzalez Buitrago Alvaro PEREIRA;Cl14 8-78, Pereira, Risaralda, Colombia;;;;4.8126860000;-75.6901370000;0.040000000;INH Brenntag Cali
11864155;Grajales Barrera Liliana;Ginebra-El Naranjal;La María;Valle del Cauca;763517;3.6972100000;-76.2965200000;0.031000000;
10248182;Grasas Buga;19-2 1956 182-1852 Calle 11 Calle 11 Calle 11;Guadalajara de Buga;Valle del Cauca;763041;3.9057800000;-76.3042500000;0.090000000;
6261387;Grasas S.A Buga;182 Calle 11;Guadalajara de Buga;Valle del Cauca;763041;3.9054070000;-76.3038850000;0.150000000;INH Brenntag Cali
6616729;Greenpulp S.A.S.;Santander de Quilichao - Cali;;Valle del Cauca;764007;3.2165300000;-76.5007730000;0.010000000;INH Brenntag Cali
18497301;GRIFFITH FOODS;Te Del Aeropuerto-Belen;;Antioquia;054027;6.1786090000;-75.3593770000;0.050000000;Clientes
629077;Grow Chemical (Tecnoquim);Parque Industrial La Nubia;;Valle del Cauca;760021;3.4405670000;-76.4589280000;0.031000000;INH Brenntag Cali
66625200;Grow Chemical Group;Parque Industrial La Nubia;;Valle del Cauca;760021;3.4404590000;-76.4586570000;0.019000000;
1635351;GRUPO EMPRESARIAL DE LA LIMPIEZA S.A.;Kr32 10-18, Yumbo, Valle Cauca, Colombia;;;;3.5103190000;-76.5182050000;0.040000000;INH Brenntag Cali
21048012;Grupo Euro Belleza s a s;10-53 10275 Carrera 37 Calle 12 Carrera 37;Yumbo;Valle del Cauca;760046;3.4969350000;-76.5171180000;0.019000000;
7494305;Grupo Tenologico Capilar S.A.S.;681-6873 Calle 3;Cali;Valle del Cauca;760035;3.3949880000;-76.5495100000;0.010000000;INH Brenntag Cali
19707584;GTM Cali;10-100 10-301 10167 102-10432 Carrera 30 Carrera 30 Carrera 31 Carrera 30;Yumbo;Valle del Cauca;760502;3.5153370000;-76.5154010000;0.040000000;
20116368;GTM COLOMBIA;10-100 10-301 10264 102-10432 Carrera 30 Carrera 30 Carrera 31 Carrera 30;Yumbo;Valle del Cauca;760502;3.5150170000;-76.5153800000;0.031000000;
40122482;GTM COLOMBIA;327 Norte #32-25 11a165 11a329 11a453-11a271 Carrera 32 Carrera 32 Carrera 32 Calle 12 Calle 12;Yumbo;Valle del Cauca;760502;3.5105530000;-76.5105540000;0.031000000;
73157065;GTM COLOMBIA;Copacabana-Girardota;;Antioquia;051037;6.3855670000;-75.4596540000;0.031000000;
24425524;GTM Colombia s a;10-100 10-301 10250 102-10432 Carrera 30 Carrera 30 Carrera 31 Carrera 30;Yumbo;Valle del Cauca;760502;3.5152940000;-76.5154790000;0.019000000;
23875570;GTM COLOMBIA Soacha;9 Sur184 9 Sur340-9 Sur174 Carrera 4 Carrera 4;Soacha;Cundinamarca;250052;4.5641000000;-74.2269300000;0.031000000;
14356678;GTM Girardota;Estación Niquita-Té Del Hatillo;;Antioquia;051037;6.3857000000;-75.4596600000;0.019000000;Clientes
14066237;GTM Nedellin;#31-45 # 31  45 314 Autopista Sur Unnamed Road Carrera 52 Carrera 52;Medellín;Antioquia;055412;6.2336200000;-75.5766100000;0.010000000;Clientes
7871305;Guerra Pineda Edaurdo;151-1575 Carrera 19;Armenia;Quindío;630003;4.5374840000;-75.6729480000;0.010000000;
26608181;Guirnalda S A S;Vía sin nombre;;Cundinamarca;251017;4.9807000000;-73.9133470000;0.031000000;
26631362;Guirnalda S A S;Vía sin nombre;;Cundinamarca;251017;4.9809270000;-73.9129780000;0.069000000;
11578800;hacienda Gachapay;Unnamed Road;Cali;Valle del Cauca;760007;3.3546880000;-76.5047680000;0.031000000;
1281053;Hacienda Santa Helena;Km 10 de la v?a Cerrito - Palmira, , Valle del Cauca;;;;3.6321000000;-76.2542500000;0.040000000;Parqueaderos
1907873;Hada S.A.;1-99 I-50;Manizales;Caldas;;5.0342690000;-75.4501670000;0.048000000;INH Brenntag Cali
1792812;Harinera del Valle;471-4799 Carrera 1B;Cali;Valle del Cauca;;3.4730610000;-76.5050880000;0.048000000;INH Brenntag Cali
639694;Hartung;Cl18 34-17, Bogota, Cundinamarca;;;;4.6210400000;-74.0920700000;0.040000000;Clientes
6348822;Hexion Quimica S.A.;;Yumbo;Valle del Cauca;;3.5842760000;-76.4855760000;0.010000000;INH Brenntag Cali
51416817;hidrante R9;56-12 56-12 6a11 6a2-6a42 Carrera 56 Carrera 56 Calle 6a Calle 6a;Buenaventura;Valle del Cauca;764502;3.8771260000;-77.0060560000;0.010000000;
25084533;Hidrotec;Vía sin nombre;;Valle del Cauca;760021;3.4415500000;-76.4622280000;0.019000000;
8716762;HIDROTEC LTDA;Parque Industrial La Nubia;;Valle del Cauca;760021;3.4409890000;-76.4594690000;0.031000000;INH Brenntag Cali
2434961;Hosp Carlos Carmona;494 Calle 12;Cali;Valle del Cauca;760044;3.4516470000;-76.5319850000;0.031000000;Hospitales
2434962;Hosp Club Noel;3a1-3a159 Carrera 23;Cali;Valle del Cauca;760044;3.4392370000;-76.5380140000;0.031000000;Hospitales
2434954;Hosp HUV;761-76159 Calle 4 Calle 5;Cali;Valle del Cauca;760033;3.3879410000;-76.5456450000;0.031000000;Hospitales
2434963;Hosp Isaias Duarte C;28d 11-28d 1437 Calle 96;Cali;Valle del Cauca;760007;3.4121230000;-76.4854000000;0.031000000;Hospitales
2434964;Hosp Joaquin Paz Borrero;7a Bis52-7a Bis102 Calle 72a;Cali;Valle del Cauca;760012;3.4648630000;-76.4823780000;0.031000000;Hospitales
2434957;Hosp Los Chorros;1a1-1a101 Carrera 69;Cali;Valle del Cauca;760035;3.3942010000;-76.5553260000;0.031000000;Hospitales
2434955;Hosp Marino Correa;75a51-75a95 Calle 2a Oeste;Cali;Valle del Cauca;760035;3.3870980000;-76.5581660000;0.031000000;Hospitales
2434959;Hosp Niño Dios;494 Calle 12;Cali;Valle del Cauca;760044;3.4516470000;-76.5319850000;0.031000000;Hospitales
5725008;Hosp Saludcoop Cali;2e Norte1-2e Norte149 Calle 33 Norte;Cali;Valle del Cauca;760050;3.4695920000;-76.5217970000;0.031000000;Hospitales
2439336;Hosp San Juan de Dios;17-67 Carrera 4;Cali;Valle del Cauca;760044;3.4549180000;-76.5279510000;0.050000000;Hospitales
2434958;Hosp San Juan Dios;172-17112 Carrera 3;Cali;Valle del Cauca;760044;3.4550420000;-76.5280390000;0.031000000;Hospitales
58146094;hospedaje y parqueadero el Saman;Tulua - Cartago;;Valle del Cauca;762027;4.7041400000;-75.9248840000;0.031000000;
9296885;hostel La Tebaida;152 La Paila - La Tebaida;La Tebaida;Quindío;633020;4.4556740000;-75.7935960000;0.019000000;
1256284;Hot Bello Horizonte;2-86 I-40;Fusagasugá;Cundinamarca;;4.3837960000;-74.3885670000;0.048000000;Restaurante
752088;Hot. Los Guaduales;Av 40-4, Restrepo, Valle Cauca;;;;3.8728140000;-76.4564760000;0.040000000;Restaurante
59592668;Hotel  Control ICA;;;Cauca;;2.8746010000;-76.5475740000;0.299000000;Parqueaderos
21019366;hotel  los Alpes;Boqueron-Fusagasuga;La Serena;Cundinamarca;252219;4.3011400000;-74.4500800000;0.031000000;
9629239;Hotel de Oscar y Yoni;5N-59 49-20 5 Norte64 Calle 49 Norte Carrera 5 Norte Calle 49N;Cali;Valle del Cauca;760003;3.4764500000;-76.5085100000;0.031000000;
43998690;Hotel El Escorpion Aguachica;14 Diagonal 2B Variante San Alberto;;Cesar;205078;7.7554010000;-73.4019140000;0.031000000;
32005784;hotel El Mulero;Variante Mamonal Gambote;El Calvario;Bolívar;131017;10.2316850000;-75.4248850000;0.031000000;
8623560;Hotel el Transportador;3 Este39-3 Este119 Calle 3;Mosquera;Cundinamarca;250047;4.7025950000;-74.2270170000;0.031000000;
12304636;Hotel El Triangulo Guaduas;Villeta-Guaduas;;Cundinamarca;253447;5.0016130000;-74.5392500000;0.031000000;
46106038;Hotel Estacion Ttulua;#48-734 48757 21151 Carrera 21 Buga - Tulua - Andalucía Carrera 40 Carrera 40;Tuluá;Valle del Cauca;763027;4.0605220000;-76.1986670000;0.031000000;
67691067;hotel hospedaje descanso Quindiano;4-2 1372 1438 142-1448 La Paila - La Tebaida La Paila - La Tebaida La Paila - La Tebaida Calle 15;La Tebaida;Quindío;633020;4.4556240000;-75.7933690000;0.031000000;
8509369;Hotel las Olas Cgena;Variante Mamonal Gambote;;Bolívar;130013;10.3439750000;-75.4869260000;0.090000000;
21019561;hotel los alpes;Boqueron-Fusagasuga;La Serena;Cundinamarca;252219;4.3011400000;-74.4500800000;0.031000000;
8954497;Hotel Los Manguitos PlanetaRica;Buenavista-Planeta Rica;;Córdoba;233048;8.3683100000;-75.5653500000;0.080000000;Parqueaderos
39604625;hotel parq.Puerta del Sur;Candelaria-Puerto Tejada;;Valle del Cauca;763578;3.3470380000;-76.3558480000;0.031000000;
1739534;Hotel Parqueadero Marisol;30-38 I-25;Planeta Rica;Córdoba;;8.3678630000;-75.5641450000;0.048000000;Parqueaderos
10557513;Hotel Rest Casa Grande;Cordoba - Loboguerrero;;Valle del Cauca;760528;3.7814230000;-76.7181930000;0.080000000;
32124726;hotel San Jose Real;Villeta-Guaduas;;Cundinamarca;253417;5.0242110000;-74.4902720000;0.019000000;
8638687;Hotel Terpel Vicar;Santander De Quilichao - Mondomo;;Cauca;191038;2.9660360000;-76.5242040000;0.031000000;
68062544;hotel y parq. Brio;17-98 17-98 19-27 1927 Carrera 8 Carrera 5ª A Carrera 8 Carrera 8 Carrera 8;Zarzal;Valle del Cauca;762520;4.3991600000;-76.0647700000;0.019000000;
36611654;hotel y parq. El Retorno;Cordoba - Loboguerrero;;Valle del Cauca;764508;3.8007200000;-76.7747400000;0.031000000;
53469616;hotel y parq. El Saman;Tulua - Cartago;;Valle del Cauca;762027;4.7039470000;-75.9246260000;0.031000000;
2397955;HOTELES ESTELARES;12-91 Calle 4;Cali;Valle del Cauca;760044;3.4500850000;-76.5386100000;0.031000000;
8717025;HOYOS GIRALDO E HIJOS S EN C;312-31124 3142 Carrera 11b Carrera 11b;Cali;Valle del Cauca;760010;3.4493900000;-76.5136600000;0.031000000;INH Brenntag Cali
17081119;HOYOS JIMMY FERNANDO;31 - Ginebra;Barrancas;Valle del Cauca;763538;3.5415870000;-76.2388990000;0.031000000;
2534517;HURTADO SANDOVAL JORGE HOMERO;Popayan;;Cauca;190009;2.4442990000;-76.4641690000;0.031000000;
15707034;I;32137 32137 32133 32149-321 Calle 13 Calle 13 Calle 13 Calle 13;Yumbo;Valle del Cauca;760502;3.5078870000;-76.5091980000;0.031000000;
7864497;Icobandas s a;64 Norte127 Carrera 9;Popayán;Cauca;190001;2.4820840000;-76.5719620000;0.019000000;
699652;Icvo s a s;Av 60, Medellin, Antioquia;;;;6.2292310000;-75.4128490000;0.040000000;Clientes
11210873;Impacto VAJ665;Cordoba - Loboguerrero;;Valle del Cauca;764507;3.8699540000;-76.8557300000;0.031000000;
11210874;Impacto VAJ665;Cordoba - Loboguerrero;;Valle del Cauca;764507;3.8699540000;-76.8557300000;0.031000000;
1712408;Impadoc S.A.S.;Kr143 36-57, Cali, Valle Cauca, Colombia;;;;3.3175940000;-76.5195930000;0.040000000;INH Brenntag Cali
21510103;Impoexport JPG s a s;11395 113-98 #113-77 11387 11399-1131 Calle 64d Calle 64d Calle 64d Calle 64d Calle 64d;Bogotá;Bogotá;111031;4.7084170000;-74.1372140000;0.019000000;
20141097;Impoexport JPG s a s;113-64 #113-47 11373 1132-11398 Calle 64c Calle 64c Calle 64c Calle 64;Bogotá;Bogotá;111031;4.7080000000;-74.1376400000;0.019000000;
1905675;Impresiones del Sur;111-1199 Carrera 35;Yumbo;Valle del Cauca;;3.5040030000;-76.5155410000;0.064000000;INH Brenntag Cali
1961343;Inalquim;1132-113100 Calle 64D;Bogotá;Bogotá, D.C.;;4.7081680000;-74.1370160000;0.048000000;
5895080;INCAP SA;721-7299 Diagonal 62a Sur;Bogotá;Bogotá;111921;4.5911730000;-74.1681040000;0.031000000;
1989748;InCauca Almacen;Unnamed Road;;Cauca;191527;3.2774660000;-76.3195400000;0.080000000;INH Brenntag Cali
25184050;InCauca Cargadero;Vía sin nombre;;Cauca;191527;3.2755000000;-76.3165700000;0.031000000;
640500;Ind Basica Caldas La Manuela;;;Caldas;;5.0604910000;-75.6081480000;0.100000000;Clientes
1617032;Ind. Macar S.A.;;Cali;Valle del Cauca;;3.4971690000;-76.4811280000;0.050000000;INH Brenntag Cali
2020080;IND. NACIONAL DE GASEOSAS S.A.;94190-94480 Calle 18;Cali;Valle del Cauca;760032;3.3726430000;-76.5271900000;0.080000000;INH Brenntag Cali
1989945;Ind. Refridcol  S.a;371-3799 Calle 4A;Yumbo;Valle del Cauca;;3.4954990000;-76.5173760000;0.080000000;INH Brenntag Cali
